[
	{
		"Id": "G000001",
		"ShopGroup": "贝尔麦莎",
		"Address": "巴南区李家沱马王坪正街21号1栋商-2(马王坪公交站旁)",
		"District": "巴南区",
		"Function": "刷卡消费",
		"Type": "畅通钱包",
		"Withdraw": "享受9.8折优惠",
		"ShopName": "李家沱",
		"Latitude": 29.472702000000002,
		"Longitude": 106.54402899999999
	},
	{
		"Id": "G000002",
		"ShopGroup": "贝尔麦莎",
		"Address": "巴南区鱼洞巴县大道57-38号(新世纪超市旁)",
		"District": "巴南区",
		"Function": "刷卡消费",
		"Type": "畅通钱包",
		"Withdraw": "享受9.8折优惠",
		"ShopName": "鱼洞",
		"Latitude": 29.387263000000001,
		"Longitude": 106.52815200000001
	},
	{
		"Id": "G000003",
		"ShopGroup": "贝尔麦莎",
		"Address": "江州大道津都鼎苑5号",
		"District": "巴南区",
		"Function": "刷卡消费",
		"Type": "畅通钱包",
		"Withdraw": "享受9.8折优惠",
		"ShopName": "津都鼎苑",
		"Latitude": 29.283806999999999,
		"Longitude": 106.28337399999999
	},
	{
		"Id": "G000004",
		"ShopGroup": "大米先生",
		"Address": "重庆市轨道交通(集团)有限公司道角车辆段司机公寓楼员工餐厅",
		"District": "巴南区",
		"Function": "刷卡消费",
		"Type": "畅通钱包",
		"Withdraw": "享受9.5折优惠",
		"ShopName": "重庆兴红得聪餐饮管理有限公司巴南区道角餐厅(暂定)",
		"Latitude": 29.567481999999998,
		"Longitude": 106.571844
	},
	{
		"Id": "G000005",
		"ShopGroup": "国美电器",
		"Address": "重庆市巴南区李家沱正街160号一城百年广场负一层",
		"District": "巴南区",
		"Function": "刷卡消费(提供充值服务)",
		"Type": "畅享账户",
		"Withdraw": "千元以下商品享受9.5折优惠",
		"ShopName": "国美李家沱店",
		"Latitude": 29.471299999999999,
		"Longitude": 106.549469
	},
	{
		"Id": "G000006",
		"ShopGroup": "国美电器",
		"Address": "重庆市巴南区鱼洞新市街79号",
		"District": "巴南区",
		"Function": "刷卡消费(提供充值服务)",
		"Type": "畅享账户",
		"Withdraw": "千元以下商品享受9.5折优惠",
		"ShopName": "鱼洞新市街店",
		"Latitude": 29.388406,
		"Longitude": 106.530422
	},
	{
		"Id": "G000007",
		"ShopGroup": "国美电器",
		"Address": "重庆市巴南区鱼洞镇新市街",
		"District": "巴南区",
		"Function": "刷卡消费(提供充值服务)",
		"Type": "畅享账户",
		"Withdraw": "千元以下商品享受9.5折优惠",
		"ShopName": "巴南鱼洞店",
		"Latitude": 29.406172999999999,
		"Longitude": 106.544871
	},
	{
		"Id": "G000008",
		"ShopGroup": "花木世界",
		"Address": "巴南区界石镇花木世界",
		"District": "巴南区",
		"Function": "刷卡消费",
		"Type": "畅通钱包/畅享账户",
		"Withdraw": "",
		"ShopName": "巴南区界石镇花木世界",
		"Latitude": 29.389329,
		"Longitude": 106.61662200000001
	},
	{
		"Id": "G000009",
		"ShopGroup": "华生园",
		"Address": "重庆市巴南区鱼洞花土湾86-89号18号门面",
		"District": "巴南区",
		"Function": "刷卡消费",
		"Type": "畅通钱包",
		"Withdraw": "享受9.5折优惠",
		"ShopName": "巴县中学",
		"Latitude": 29.392824000000001,
		"Longitude": 106.520972
	},
	{
		"Id": "G000010",
		"ShopGroup": "廖记棒棒鸡",
		"Address": "巴南区巴县大道72-1(兴隆市场门口)",
		"District": "巴南区",
		"Function": "刷卡消费",
		"Type": "畅通钱包",
		"Withdraw": "享受9.2折优惠",
		"ShopName": "鱼洞",
		"Latitude": 29.388829999999999,
		"Longitude": 106.526881
	},
	{
		"Id": "G000011",
		"ShopGroup": "廖记棒棒鸡",
		"Address": "李家沱马王坪正街庆丰花园",
		"District": "巴南区",
		"Function": "刷卡消费",
		"Type": "畅通钱包",
		"Withdraw": "享受9.2折优惠",
		"ShopName": "马王坪",
		"Latitude": 29.473087,
		"Longitude": 106.543093
	},
	{
		"Id": "G000012",
		"ShopGroup": "廖记棒棒鸡",
		"Address": "巴南区鱼洞大江转盘玉豪龙庭小区对面",
		"District": "巴南区",
		"Function": "刷卡消费",
		"Type": "畅通钱包",
		"Withdraw": "享受9.2折优惠",
		"ShopName": "大江厂",
		"Latitude": 29.387491000000001,
		"Longitude": 106.525854
	},
	{
		"Id": "G000013",
		"ShopGroup": "廖记棒棒鸡",
		"Address": "巴南区鱼洞镇鱼轻路53号(重客隆鱼轻店对面)",
		"District": "巴南区",
		"Function": "刷卡消费",
		"Type": "畅通钱包",
		"Withdraw": "享受9.2折优惠",
		"ShopName": "鱼轻路",
		"Latitude": 29.387423999999999,
		"Longitude": 106.50826499999999
	},
	{
		"Id": "G000014",
		"ShopGroup": "三峡报刊亭",
		"Address": "鱼洞批销门市(报刊亭号9-38)",
		"District": "巴南区",
		"Function": "刷卡消费(提供充值服务)",
		"Type": "畅通钱包",
		"Withdraw": "购书享受6折起优惠",
		"ShopName": "三峡报刊亭",
		"Latitude": 29.387491000000001,
		"Longitude": 106.525854
	},
	{
		"Id": "G000015",
		"ShopGroup": "三峡报刊亭",
		"Address": "大江转盘处(报刊亭号9-42)",
		"District": "巴南区",
		"Function": "刷卡消费(提供充值服务)",
		"Type": "畅通钱包",
		"Withdraw": "购书享受6折起优惠",
		"ShopName": "三峡报刊亭",
		"Latitude": 32.058439999999997,
		"Longitude": 118.72216
	},
	{
		"Id": "G000016",
		"ShopGroup": "时报爱达",
		"Address": "巴南区李家沱融汇大道1号融汇半岛1期物管客服中心",
		"District": "巴南区",
		"Function": "刷卡消费(提供充值服务)",
		"Type": "畅通钱包",
		"Withdraw": "暂无折扣",
		"ShopName": "融汇半岛1期店",
		"Latitude": 29.469090000000001,
		"Longitude": 106.525216
	},
	{
		"Id": "G000017",
		"ShopGroup": "时报爱达",
		"Address": "巴南区龙海大道3号2栋原客户中心用房",
		"District": "巴南区",
		"Function": "刷卡消费(提供充值服务)",
		"Type": "畅通钱包",
		"Withdraw": "暂无折扣",
		"ShopName": "典雅-龙海港湾",
		"Latitude": 29.406314999999999,
		"Longitude": 106.544803
	},
	{
		"Id": "G000018",
		"ShopGroup": "时报爱达",
		"Address": "重庆市巴南龙洲湾街道道角村1号浩立碧海湾小区6号楼一楼物业用房",
		"District": "巴南区",
		"Function": "刷卡消费(提供充值服务)",
		"Type": "畅通钱包",
		"Withdraw": "暂无折扣",
		"ShopName": "浩立碧海湾",
		"Latitude": 29.418624000000001,
		"Longitude": 106.54136
	},
	{
		"Id": "G000019",
		"ShopGroup": "时报爱达",
		"Address": "巴南区土桥正街11号红光大道33号附99号",
		"District": "巴南区",
		"Function": "刷卡消费(提供充值服务)",
		"Type": "畅通钱包",
		"Withdraw": "暂无折扣",
		"ShopName": "新尚城",
		"Latitude": 29.458490999999999,
		"Longitude": 106.551075
	},
	{
		"Id": "G000020",
		"ShopGroup": "时报爱达",
		"Address": "重庆市巴南区江滨路30号鹭岛纯水岸小区20栋一楼一号",
		"District": "巴南区",
		"Function": "刷卡消费(提供充值服务)",
		"Type": "畅通钱包",
		"Withdraw": "暂无折扣",
		"ShopName": "鹭岛纯水岸3期(假日滨江花园)",
		"Latitude": 29.400497999999999,
		"Longitude": 106.51105099999999
	},
	{
		"Id": "G000021",
		"ShopGroup": "时报爱达",
		"Address": "重庆市巴南龙洲湾街道道角村1号浩立碧海湾小区6号楼一楼物业用房",
		"District": "巴南区",
		"Function": "刷卡消费(提供充值服务)",
		"Type": "畅通钱包",
		"Withdraw": "暂无折扣",
		"ShopName": "浩立碧海湾",
		"Latitude": 29.418624000000001,
		"Longitude": 106.54136
	},
	{
		"Id": "G000022",
		"ShopGroup": "时报爱达",
		"Address": "龙洲大道2号江南华都小区物管斜对面门面房5栋11",
		"District": "巴南区",
		"Function": "刷卡消费(提供充值服务)",
		"Type": "畅通钱包",
		"Withdraw": "暂无折扣",
		"ShopName": "江南华都",
		"Latitude": 29.384501,
		"Longitude": 106.541656
	},
	{
		"Id": "G000023",
		"ShopGroup": "时报爱达",
		"Address": "重庆市巴南区鱼洞大江双安街万友康馨苑47号",
		"District": "巴南区",
		"Function": "刷卡消费(提供充值服务)",
		"Type": "畅通钱包",
		"Withdraw": "暂无折扣",
		"ShopName": "万友康馨苑",
		"Latitude": 29.398061999999999,
		"Longitude": 106.51456399999999
	},
	{
		"Id": "G000024",
		"ShopGroup": "时报爱达",
		"Address": "红光大道19号曦圆柳镇小区临街门面5号",
		"District": "巴南区",
		"Function": "刷卡消费(提供充值服务)",
		"Type": "畅通钱包",
		"Withdraw": "暂无折扣",
		"ShopName": "曦园柳镇",
		"Latitude": 29.458333,
		"Longitude": 106.555153
	},
	{
		"Id": "G000025",
		"ShopGroup": "时报爱达",
		"Address": "巴南区鱼洞龙洲大道1号B1栋架空层",
		"District": "巴南区",
		"Function": "刷卡消费(提供充值服务)",
		"Type": "畅通钱包",
		"Withdraw": "暂无折扣",
		"ShopName": "龙洲半岛",
		"Latitude": 29.384450999999999,
		"Longitude": 106.541022
	},
	{
		"Id": "G000026",
		"ShopGroup": "苏宁电器",
		"Address": "重庆巴南区新市街76号",
		"District": "巴南区",
		"Function": "刷卡消费",
		"Type": "畅享账户",
		"Withdraw": "暂无折扣",
		"ShopName": "鱼洞2店",
		"Latitude": 29.388815999999998,
		"Longitude": 106.530472
	},
	{
		"Id": "G000027",
		"ShopGroup": "苏宁电器",
		"Address": "重庆市巴南区李家沱林荫村18号都和广场",
		"District": "巴南区",
		"Function": "刷卡消费",
		"Type": "畅享账户",
		"Withdraw": "暂无折扣",
		"ShopName": "李家沱店",
		"Latitude": 29.470580999999999,
		"Longitude": 106.547318
	},
	{
		"Id": "G000028",
		"ShopGroup": "天友",
		"Address": "巴南区融汇大道越欣辉加盟",
		"District": "巴南区",
		"Function": "刷卡消费",
		"Type": "畅通钱包",
		"Withdraw": "",
		"ShopName": "融汇大道越欣辉加盟",
		"Latitude": 29.473282000000001,
		"Longitude": 106.524007
	},
	{
		"Id": "G000029",
		"ShopGroup": "天友",
		"Address": "鱼洞箭河路巴南印象小区",
		"District": "巴南区",
		"Function": "刷卡消费",
		"Type": "畅通钱包",
		"Withdraw": "",
		"ShopName": "巴南印象加盟",
		"Latitude": 29.38738,
		"Longitude": 106.526837
	},
	{
		"Id": "G000030",
		"ShopGroup": "天友乳业集团",
		"Address": "李家沱土桥",
		"District": "巴南区",
		"Function": "刷卡消费",
		"Type": "畅通钱包",
		"Withdraw": "暂无折扣",
		"ShopName": "新尚城服务中心",
		"Latitude": 29.458749999999998,
		"Longitude": 106.549148
	},
	{
		"Id": "G000031",
		"ShopGroup": "天友乳业集团",
		"Address": "八公里丽都景城(李八路口)",
		"District": "巴南区",
		"Function": "刷卡消费",
		"Type": "畅通钱包",
		"Withdraw": "暂无折扣",
		"ShopName": "丽都景城服务中心",
		"Latitude": 26.494976999999999,
		"Longitude": 106.746363
	},
	{
		"Id": "G000032",
		"ShopGroup": "天友乳业集团",
		"Address": "李家沱融汇半岛五园湾",
		"District": "巴南区",
		"Function": "刷卡消费",
		"Type": "畅通钱包",
		"Withdraw": "暂无折扣",
		"ShopName": "五园湾服务中心",
		"Latitude": 29.469090000000001,
		"Longitude": 106.525216
	},
	{
		"Id": "G000033",
		"ShopGroup": "天友乳业集团",
		"Address": "李家沱恒大城小区二区典雅车站旁",
		"District": "巴南区",
		"Function": "刷卡消费",
		"Type": "畅通钱包",
		"Withdraw": "暂无折扣",
		"ShopName": "恒大城服务中心",
		"Latitude": 29.469718,
		"Longitude": 106.560425
	},
	{
		"Id": "G000034",
		"ShopGroup": "天友乳业集团",
		"Address": "鹿角",
		"District": "巴南区",
		"Function": "刷卡消费",
		"Type": "畅通钱包",
		"Withdraw": "暂无折扣",
		"ShopName": "鹿角迎宾服务中心",
		"Latitude": 29.450690999999999,
		"Longitude": 106.611761
	},
	{
		"Id": "G000035",
		"ShopGroup": "天友乳业集团",
		"Address": "巴南区鱼洞道角",
		"District": "巴南区",
		"Function": "刷卡消费",
		"Type": "畅通钱包",
		"Withdraw": "暂无折扣",
		"ShopName": "道角服务中心",
		"Latitude": 29.387491000000001,
		"Longitude": 106.525854
	},
	{
		"Id": "G000036",
		"ShopGroup": "天友乳业集团",
		"Address": "李家沱花溪医院旁边",
		"District": "巴南区",
		"Function": "刷卡消费",
		"Type": "畅通钱包",
		"Withdraw": "暂无折扣",
		"ShopName": "花溪服务中心",
		"Latitude": 29.471869000000002,
		"Longitude": 106.545491
	},
	{
		"Id": "G000037",
		"ShopGroup": "天友乳业集团",
		"Address": "李家沱岔路口",
		"District": "巴南区",
		"Function": "刷卡消费",
		"Type": "畅通钱包",
		"Withdraw": "暂无折扣",
		"ShopName": "岔路口服务中心",
		"Latitude": 29.45318,
		"Longitude": 106.560875
	},
	{
		"Id": "G000038",
		"ShopGroup": "天友乳业集团",
		"Address": "巴南融汇半岛售房部",
		"District": "巴南区",
		"Function": "刷卡消费",
		"Type": "畅通钱包",
		"Withdraw": "暂无折扣",
		"ShopName": "融汇服务中心",
		"Latitude": 29.469090000000001,
		"Longitude": 106.525216
	},
	{
		"Id": "G000039",
		"ShopGroup": "天友乳业集团",
		"Address": "李家沱正街181号",
		"District": "巴南区",
		"Function": "刷卡消费",
		"Type": "畅通钱包",
		"Withdraw": "暂无折扣",
		"ShopName": "李家沱健康生活馆",
		"Latitude": 29.469788000000001,
		"Longitude": 106.54978199999999
	},
	{
		"Id": "G000040",
		"ShopGroup": "天友乳业集团",
		"Address": "鱼洞健康生活馆(新市)",
		"District": "巴南区",
		"Function": "刷卡消费",
		"Type": "畅通钱包",
		"Withdraw": "暂无折扣",
		"ShopName": "天友健康生活馆",
		"Latitude": 29.387491000000001,
		"Longitude": 106.525854
	},
	{
		"Id": "G000041",
		"ShopGroup": "天友乳业集团",
		"Address": "巴南区龙州大道1839号香颂紫寓宜家超市",
		"District": "巴南区",
		"Function": "刷卡消费",
		"Type": "畅通钱包",
		"Withdraw": "暂无折扣",
		"ShopName": "香颂紫寓加盟",
		"Latitude": 29.454198000000002,
		"Longitude": 106.549725
	},
	{
		"Id": "G000042",
		"ShopGroup": "天友乳业集团",
		"Address": "巴南李家沱理工大学旁",
		"District": "巴南区",
		"Function": "刷卡消费",
		"Type": "畅通钱包",
		"Withdraw": "暂无折扣",
		"ShopName": "巴比亚半山加盟",
		"Latitude": 29.471869000000002,
		"Longitude": 106.545491
	},
	{
		"Id": "G000043",
		"ShopGroup": "天友乳业集团",
		"Address": "巴南区一品镇顺兴街",
		"District": "巴南区",
		"Function": "刷卡消费",
		"Type": "畅通钱包",
		"Withdraw": "暂无折扣",
		"ShopName": "一品服务中心",
		"Latitude": 29.286959,
		"Longitude": 106.57343899999999
	},
	{
		"Id": "G000044",
		"ShopGroup": "天友乳业集团",
		"Address": "鱼洞巴县医院",
		"District": "巴南区",
		"Function": "刷卡消费",
		"Type": "畅通钱包",
		"Withdraw": "暂无折扣",
		"ShopName": "巴县医院服务中心",
		"Latitude": 29.387491000000001,
		"Longitude": 106.525854
	},
	{
		"Id": "G000045",
		"ShopGroup": "天友乳业集团",
		"Address": "鱼洞鱼轻路半岛康城大门口",
		"District": "巴南区",
		"Function": "刷卡消费",
		"Type": "畅通钱包",
		"Withdraw": "暂无折扣",
		"ShopName": "半岛康城服务中心",
		"Latitude": 29.387491000000001,
		"Longitude": 106.525854
	},
	{
		"Id": "G000046",
		"ShopGroup": "天友乳业集团",
		"Address": "巴南区木洞镇大桥一路99号",
		"District": "巴南区",
		"Function": "刷卡消费",
		"Type": "畅通钱包",
		"Withdraw": "暂无折扣",
		"ShopName": "木洞分发商中心",
		"Latitude": 29.579272,
		"Longitude": 106.83949
	},
	{
		"Id": "G000047",
		"ShopGroup": "天友乳业集团",
		"Address": "巴南清华中学门口",
		"District": "巴南区",
		"Function": "刷卡消费",
		"Type": "畅通钱包",
		"Withdraw": "暂无折扣",
		"ShopName": "清华服务中心",
		"Latitude": 29.459156,
		"Longitude": 106.546605
	},
	{
		"Id": "G000048",
		"ShopGroup": "天友乳业集团",
		"Address": "龙洲湾",
		"District": "巴南区",
		"Function": "刷卡消费",
		"Type": "畅通钱包",
		"Withdraw": "暂无折扣",
		"ShopName": "雅典服务中心",
		"Latitude": 22.252227999999999,
		"Longitude": 113.600573
	},
	{
		"Id": "G000049",
		"ShopGroup": "天友乳业集团",
		"Address": "李家沱林荫村",
		"District": "巴南区",
		"Function": "刷卡消费",
		"Type": "畅通钱包",
		"Withdraw": "暂无折扣",
		"ShopName": "林荫村服务中心",
		"Latitude": 29.468672999999999,
		"Longitude": 106.544023
	},
	{
		"Id": "G000050",
		"ShopGroup": "天友乳业集团",
		"Address": "渝南大道118号日月山庄正门口",
		"District": "巴南区",
		"Function": "刷卡消费",
		"Type": "畅通钱包",
		"Withdraw": "暂无折扣",
		"ShopName": "日月山庄服务中心",
		"Latitude": 29.466469,
		"Longitude": 106.565455
	},
	{
		"Id": "G000051",
		"ShopGroup": "天友乳业集团",
		"Address": "巴南民主新村5栋1-19号",
		"District": "巴南区",
		"Function": "刷卡消费",
		"Type": "畅通钱包",
		"Withdraw": "暂无折扣",
		"ShopName": "民主新村服务中心",
		"Latitude": 29.44473,
		"Longitude": 106.556211
	},
	{
		"Id": "G000052",
		"ShopGroup": "天友乳业集团",
		"Address": "土桥屏都大厦",
		"District": "巴南区",
		"Function": "刷卡消费",
		"Type": "畅通钱包",
		"Withdraw": "暂无折扣",
		"ShopName": "屏都服务中心",
		"Latitude": 29.459188999999999,
		"Longitude": 106.551554
	},
	{
		"Id": "G000053",
		"ShopGroup": "乡村基",
		"Address": "重庆市巴南区渔洞鱼轻路30号",
		"District": "巴南区",
		"Function": "刷卡消费",
		"Type": "畅通钱包",
		"Withdraw": "享受9.5折优惠",
		"ShopName": "巴南区渔洞人民广场餐厅",
		"Latitude": 29.385684000000001,
		"Longitude": 106.523707
	},
	{
		"Id": "G000054",
		"ShopGroup": "张鸭子",
		"Address": "重庆市巴南区渔洞新市街49号都汇里",
		"District": "巴南区",
		"Function": "刷卡消费",
		"Type": "畅通钱包",
		"Withdraw": "",
		"ShopName": "都汇里",
		"Latitude": 29.386787999999999,
		"Longitude": 106.533627
	},
	{
		"Id": "G000055",
		"ShopGroup": "张鸭子",
		"Address": "巴南区李家沱都和广场",
		"District": "巴南区",
		"Function": "刷卡消费",
		"Type": "畅通钱包",
		"Withdraw": "享受9.5折优惠",
		"ShopName": "都和广场店",
		"Latitude": 29.471236999999999,
		"Longitude": 106.54803
	},
	{
		"Id": "G000056",
		"ShopGroup": "张鸭子",
		"Address": "重庆市巴南区鱼洞市场W-44号",
		"District": "巴南区",
		"Function": "刷卡消费",
		"Type": "畅通钱包",
		"Withdraw": "享受9.5折优惠",
		"ShopName": "下河路",
		"Latitude": 29.389634000000001,
		"Longitude": 106.528728
	},
	{
		"Id": "G000057",
		"ShopGroup": "中百仓储",
		"Address": "巴南区渝南大道32号丽都锦城第B1栋商业第一层18-21号",
		"District": "巴南区",
		"Function": "刷卡消费(提供充值服务)",
		"Type": "畅通钱包",
		"Withdraw": "部分商品享受9.5折优惠",
		"ShopName": "渝南店",
		"Latitude": 29.477433999999999,
		"Longitude": 106.568882
	},
	{
		"Id": "G000058",
		"ShopGroup": "中百仓储",
		"Address": "巴南区李家沱土桥红光新村2号杰信雅邻21号,22号",
		"District": "巴南区",
		"Function": "刷卡消费(提供充值服务)",
		"Type": "畅通钱包",
		"Withdraw": "部分商品享受9.5折优惠",
		"ShopName": "杰信雅邻店",
		"Latitude": 29.464382000000001,
		"Longitude": 106.542664
	},
	{
		"Id": "G000059",
		"ShopGroup": "中百仓储",
		"Address": "巴南区渝南大道32号丽都锦城第B1栋商业第一层18-21号",
		"District": "巴南区",
		"Function": "刷卡消费(提供充值服务)",
		"Type": "畅通钱包",
		"Withdraw": "部分商品享受9.5折优惠",
		"ShopName": "渝南店",
		"Latitude": 29.477433999999999,
		"Longitude": 106.568882
	},
	{
		"Id": "G000060",
		"ShopGroup": "中百仓储",
		"Address": "巴南区巴南大道9号附9号1-7",
		"District": "巴南区",
		"Function": "刷卡消费(提供充值服务)",
		"Type": "畅通钱包",
		"Withdraw": "部分商品享受9.5折优惠",
		"ShopName": "恒大城店",
		"Latitude": 29.470752999999998,
		"Longitude": 106.552998
	},
	{
		"Id": "G000061",
		"ShopGroup": "中百仓储",
		"Address": "巴南区鱼洞镇巴县大道103号附一号",
		"District": "巴南区",
		"Function": "刷卡消费(提供充值服务)",
		"Type": "畅通钱包",
		"Withdraw": "部分商品享受9.5折优惠",
		"ShopName": "巴南店",
		"Latitude": 29.390896000000001,
		"Longitude": 106.52036
	},
	{
		"Id": "G000062",
		"ShopGroup": "中百仓储",
		"Address": "渝南大道130号第1-13,1-14,1,26,1-27",
		"District": "巴南区",
		"Function": "刷卡消费(提供充值服务)",
		"Type": "畅通钱包",
		"Withdraw": "部分商品享受9.5折优惠",
		"ShopName": "动力城店",
		"Latitude": 29.438220999999999,
		"Longitude": 106.553201
	},
	{
		"Id": "G000063",
		"ShopGroup": "中百仓储",
		"Address": "巴南区鱼胡路18号15栋1-2号",
		"District": "巴南区",
		"Function": "刷卡消费(提供充值服务)",
		"Type": "畅通钱包",
		"Withdraw": "部分商品享受9.5折优惠",
		"ShopName": "鱼胡路店",
		"Latitude": 29.381951999999998,
		"Longitude": 106.541718
	},
	{
		"Id": "G000064",
		"ShopGroup": "中百仓储",
		"Address": "巴南区红光大道33号“世纪阳光*新尚城”8栋33号附98号",
		"District": "巴南区",
		"Function": "刷卡消费(提供充值服务)",
		"Type": "畅通钱包",
		"Withdraw": "部分商品享受9.5折优惠",
		"ShopName": "世纪新尚城店",
		"Latitude": 29.457245,
		"Longitude": 106.549083
	},
	{
		"Id": "G000065",
		"ShopGroup": "中石化",
		"Address": "重庆市渝南大道31号",
		"District": "巴南区",
		"Function": "刷卡消费",
		"Type": "畅通钱包/畅享账户",
		"Withdraw": "暂无折扣",
		"ShopName": "其龙加油站(自)",
		"Latitude": 29.475984,
		"Longitude": 106.569203
	},
	{
		"Id": "G000066",
		"ShopGroup": "中石油",
		"Address": "重庆巴南区南泉镇红星村",
		"District": "巴南区",
		"Function": "刷卡消费",
		"Type": "畅通钱包/畅享账户",
		"Withdraw": "暂无折扣",
		"ShopName": "巴南南泉加油站",
		"Latitude": 29.444883000000001,
		"Longitude": 106.574958
	},
	{
		"Id": "G000067",
		"ShopGroup": "中石油",
		"Address": "巴南区界石镇腊梅路139号",
		"District": "巴南区",
		"Function": "刷卡消费",
		"Type": "畅通钱包/畅享账户",
		"Withdraw": "暂无折扣",
		"ShopName": "界石加油站",
		"Latitude": 29.385598999999999,
		"Longitude": 106.619285
	},
	{
		"Id": "G000068",
		"ShopGroup": "中石油",
		"Address": "巴南区李家沱李九路南侧",
		"District": "巴南区",
		"Function": "刷卡消费",
		"Type": "畅通钱包/畅享账户",
		"Withdraw": "暂无折扣",
		"ShopName": "李九路店",
		"Latitude": 29.471869000000002,
		"Longitude": 106.545491
	},
	{
		"Id": "G000069",
		"ShopGroup": "中石油",
		"Address": "重庆巴南区鱼洞街独龙村",
		"District": "巴南区",
		"Function": "刷卡消费",
		"Type": "畅通钱包/畅享账户",
		"Withdraw": "暂无折扣",
		"ShopName": "巴南加油站",
		"Latitude": 29.387491000000001,
		"Longitude": 106.525854
	},
	{
		"Id": "G000070",
		"ShopGroup": "中石油",
		"Address": "巴南区鱼洞镇箭河路",
		"District": "巴南区",
		"Function": "刷卡消费",
		"Type": "畅通钱包/畅享账户",
		"Withdraw": "暂无折扣",
		"ShopName": "鱼城加油站",
		"Latitude": 29.406172999999999,
		"Longitude": 106.544871
	},
	{
		"Id": "G000071",
		"ShopGroup": "中石油",
		"Address": "重庆巴南区鱼洞街独龙村",
		"District": "巴南区",
		"Function": "刷卡消费",
		"Type": "畅通钱包/畅享账户",
		"Withdraw": "暂无折扣",
		"ShopName": "巴南鱼洞加油站",
		"Latitude": 29.387491000000001,
		"Longitude": 106.525854
	},
	{
		"Id": "G000072",
		"ShopGroup": "中石油",
		"Address": "巴南区李家沱王家坝",
		"District": "巴南区",
		"Function": "刷卡消费",
		"Type": "畅通钱包/畅享账户",
		"Withdraw": "暂无折扣",
		"ShopName": "巴南土桥加油站",
		"Latitude": 29.471869000000002,
		"Longitude": 106.545491
	},
	{
		"Id": "G000073",
		"ShopGroup": "重百,新世纪",
		"Address": "重庆市巴南区鱼洞鱼胡路9号负2层车库",
		"District": "巴南区",
		"Function": "刷卡消费",
		"Type": "畅享账户",
		"Withdraw": "暂无折扣",
		"ShopName": "重庆商社新世纪百货连锁经营有限公司鱼胡路店",
		"Latitude": 29.382422999999999,
		"Longitude": 106.541595
	},
	{
		"Id": "G000074",
		"ShopGroup": "重百,新世纪",
		"Address": "重庆市巴南区鱼洞黄溪街105号",
		"District": "巴南区",
		"Function": "刷卡消费",
		"Type": "畅享账户",
		"Withdraw": "暂无折扣",
		"ShopName": "重庆商社新世纪百货连锁经营有限公司大江店",
		"Latitude": 29.394196000000001,
		"Longitude": 106.513092
	},
	{
		"Id": "G000075",
		"ShopGroup": "重百,新世纪",
		"Address": "重庆市巴南区巴南区李家沱林南村18号",
		"District": "巴南区",
		"Function": "刷卡消费",
		"Type": "畅享账户",
		"Withdraw": "暂无折扣",
		"ShopName": "重百李家沱商场",
		"Latitude": 29.471869000000002,
		"Longitude": 106.545491
	},
	{
		"Id": "G000076",
		"ShopGroup": "重百,新世纪",
		"Address": "重庆市巴南区鱼洞世纪广场",
		"District": "巴南区",
		"Function": "刷卡消费",
		"Type": "畅享账户",
		"Withdraw": "暂无折扣",
		"ShopName": "重庆商社新世纪百货连锁经营有限公司鱼洞店",
		"Latitude": 29.387443000000001,
		"Longitude": 106.52833099999999
	},
	{
		"Id": "G000077",
		"ShopGroup": "重百,新世纪",
		"Address": "重庆市巴南区鱼洞新市街60号负1-2号",
		"District": "巴南区",
		"Function": "刷卡消费",
		"Type": "畅享账户",
		"Withdraw": "暂无折扣",
		"ShopName": "重庆商社新世纪百货连锁经营有限公司巴南店",
		"Latitude": 29.388020000000001,
		"Longitude": 106.531318
	},
	{
		"Id": "G000078",
		"ShopGroup": "重百,新世纪",
		"Address": "重庆市巴南区巴南区李家沱融汇大道1号14号楼负一层",
		"District": "巴南区",
		"Function": "刷卡消费",
		"Type": "畅享账户",
		"Withdraw": "暂无折扣",
		"ShopName": "重庆百货大楼股份公司超市分公司融汇半岛店",
		"Latitude": 29.470406000000001,
		"Longitude": 106.52566299999999
	},
	{
		"Id": "G000079",
		"ShopGroup": "重百,新世纪",
		"Address": "重庆市巴南区李家沱马王坪水轮村8栋负一层",
		"District": "巴南区",
		"Function": "刷卡消费",
		"Type": "畅享账户",
		"Withdraw": "暂无折扣",
		"ShopName": "重庆商社新世纪百货连锁经营有限公司马王坪店",
		"Latitude": 29.471910999999999,
		"Longitude": 106.541481
	},
	{
		"Id": "G000080",
		"ShopGroup": "重百,新世纪",
		"Address": "重庆市巴南区龙洲湾店",
		"District": "巴南区",
		"Function": "刷卡消费",
		"Type": "畅享账户",
		"Withdraw": "暂无折扣",
		"ShopName": "重庆百货大楼股份有限公司新世纪龙洲湾店",
		"Latitude": 29.378028,
		"Longitude": 106.758274
	},
	{
		"Id": "G000081",
		"ShopGroup": "重百,新世纪",
		"Address": "重庆市巴南区李家沱正街160号",
		"District": "巴南区",
		"Function": "刷卡消费",
		"Type": "畅享账户",
		"Withdraw": "暂无折扣",
		"ShopName": "重庆商社新世纪百货连锁经营有限公司李家沱店",
		"Latitude": 29.471544000000002,
		"Longitude": 106.549308
	},
	{
		"Id": "G000082",
		"ShopGroup": "重百,新世纪",
		"Address": "重庆市巴南区鱼洞新市街80号",
		"District": "巴南区",
		"Function": "刷卡消费",
		"Type": "畅享账户",
		"Withdraw": "暂无折扣",
		"ShopName": "重庆百货大楼股份有限公司新世纪百货巴南商都",
		"Latitude": 29.388967000000001,
		"Longitude": 106.529974
	},
	{
		"Id": "G000083",
		"ShopGroup": "重庆屈臣氏个人用品商店有限公司",
		"Address": "重庆市巴南区李家沱组团Q分区Q05-1/02号万达广场首层",
		"District": "巴南区",
		"Function": "刷卡消费",
		"Type": "畅享账户",
		"Withdraw": "暂无折扣",
		"ShopName": "巴南万达店8020",
		"Latitude": 29.535610999999999,
		"Longitude": 106.57690599999999
	},
	{
		"Id": "G000084",
		"ShopGroup": "重庆屈臣氏个人用品商店有限公司",
		"Address": "重庆市巴南区鱼洞新市街80号一层",
		"District": "巴南区",
		"Function": "刷卡消费",
		"Type": "畅享账户",
		"Withdraw": "暂无折扣",
		"ShopName": "鱼洞新市街店1709",
		"Latitude": 29.388967000000001,
		"Longitude": 106.529974
	},
	{
		"Id": "G000085",
		"ShopGroup": "紫燕百味鸡",
		"Address": "巴南区李家沱正街23号",
		"District": "巴南区",
		"Function": "刷卡消费",
		"Type": "畅通钱包",
		"Withdraw": "享受9.5折优惠",
		"ShopName": "李家沱正街店",
		"Latitude": 29.471693999999999,
		"Longitude": 106.549738
	},
	{
		"Id": "G000086",
		"ShopGroup": "紫燕百味鸡",
		"Address": "巴南区都和广场永辉超市门口",
		"District": "巴南区",
		"Function": "刷卡消费",
		"Type": "畅通钱包",
		"Withdraw": "享受9.5折优惠",
		"ShopName": "李家沱",
		"Latitude": 29.471236999999999,
		"Longitude": 106.54803
	},
	{
		"Id": "G000087",
		"ShopGroup": "紫燕百味鸡",
		"Address": "巴南区鱼洞公交车站旁菜市场出口",
		"District": "巴南区",
		"Function": "刷卡消费",
		"Type": "畅通钱包",
		"Withdraw": "享受9.5折优惠",
		"ShopName": "下河路",
		"Latitude": 29.387491000000001,
		"Longitude": 106.525854
	},
	{
		"Id": "G000088",
		"ShopGroup": "紫燕百味鸡",
		"Address": "巴南区鱼洞江州路3公司对面",
		"District": "巴南区",
		"Function": "刷卡消费",
		"Type": "畅通钱包",
		"Withdraw": "享受9.5折优惠",
		"ShopName": "江州路",
		"Latitude": 29.387491000000001,
		"Longitude": 106.525854
	},
	{
		"Id": "G000089",
		"ShopGroup": "紫燕百味鸡",
		"Address": "巴南区鱼洞莲花菜市场对面公交车总站旁",
		"District": "巴南区",
		"Function": "刷卡消费",
		"Type": "畅通钱包",
		"Withdraw": "享受9.5折优惠",
		"ShopName": "莲花市场",
		"Latitude": 29.387491000000001,
		"Longitude": 106.525854
	},
	{
		"Id": "G000090",
		"ShopGroup": "紫燕百味鸡",
		"Address": "巴南区界石镇新街99号",
		"District": "巴南区",
		"Function": "刷卡消费",
		"Type": "畅通钱包",
		"Withdraw": "享受9.5折优惠",
		"ShopName": "界石",
		"Latitude": 29.288951999999998,
		"Longitude": 106.570667
	},
	{
		"Id": "G000091",
		"ShopGroup": "紫燕百味鸡",
		"Address": "巴南区公租房云篆山水菜市场门口",
		"District": "巴南区",
		"Function": "刷卡消费",
		"Type": "畅通钱包",
		"Withdraw": "享受9.5折优惠",
		"ShopName": "云篆山水",
		"Latitude": 29.380777999999999,
		"Longitude": 106.53689
	},
	{
		"Id": "G000092",
		"ShopGroup": "紫燕百味鸡",
		"Address": "巴南区新农街华联超市门口",
		"District": "巴南区",
		"Function": "刷卡消费",
		"Type": "畅通钱包",
		"Withdraw": "享受9.5折优惠",
		"ShopName": "新农街",
		"Latitude": 29.38523,
		"Longitude": 106.526816
	},
	{
		"Id": "G000093",
		"ShopGroup": "紫燕百味鸡",
		"Address": "巴南区马王坪正街新世纪对面",
		"District": "巴南区",
		"Function": "刷卡消费",
		"Type": "畅通钱包",
		"Withdraw": "享受9.5折优惠",
		"ShopName": "马王坪",
		"Latitude": 29.472132999999999,
		"Longitude": 106.54158099999999
	},
	{
		"Id": "G000094",
		"ShopGroup": "紫燕百味鸡",
		"Address": "巴南区鱼洞巴县大道宏源小区出口",
		"District": "巴南区",
		"Function": "刷卡消费",
		"Type": "畅通钱包",
		"Withdraw": "享受9.5折优惠",
		"ShopName": "中干道",
		"Latitude": 29.387491000000001,
		"Longitude": 106.525854
	},
	{
		"Id": "G000095",
		"ShopGroup": "紫燕百味鸡",
		"Address": "巴南区鱼洞菜市场出口建设银行对面",
		"District": "巴南区",
		"Function": "刷卡消费",
		"Type": "畅通钱包",
		"Withdraw": "享受9.5折优惠",
		"ShopName": "大江厂",
		"Latitude": 29.389779999999998,
		"Longitude": 106.52876000000001
	},
	{
		"Id": "G000096",
		"ShopGroup": "祖提蛋糕",
		"Address": "重庆市巴南区鱼洞大江双安街万友康馨苑47号",
		"District": "巴南区",
		"Function": "刷卡消费(提供充值服务)",
		"Type": "畅通钱包",
		"Withdraw": "暂无折扣",
		"ShopName": "万友康馨苑",
		"Latitude": 29.398061999999999,
		"Longitude": 106.51456399999999
	},
	{
		"Id": "G000097",
		"ShopGroup": "贝尔麦莎",
		"Address": "北碚区碚峡路218号附1-2号",
		"District": "北碚区",
		"Function": "刷卡消费",
		"Type": "畅通钱包",
		"Withdraw": "享受9.8折优惠",
		"ShopName": "碚峡路",
		"Latitude": 29.827373000000001,
		"Longitude": 106.445629
	},
	{
		"Id": "G000098",
		"ShopGroup": "大米先生",
		"Address": "重庆市北碚区嘉陵风情街19号1-1",
		"District": "北碚区",
		"Function": "刷卡消费",
		"Type": "畅通钱包",
		"Withdraw": "享受9.5折优惠",
		"ShopName": "重庆兴红得聪餐饮管理有限公司北碚区城南步行街餐厅",
		"Latitude": 29.866596000000001,
		"Longitude": 106.520342
	},
	{
		"Id": "G000099",
		"ShopGroup": "德克士",
		"Address": "重庆市北碚区城南嘉陵风情步行街16号附2号",
		"District": "北碚区",
		"Function": "刷卡消费",
		"Type": "畅通钱包",
		"Withdraw": "原价单品享受8.5折优惠(卡友日除外)",
		"ShopName": "嘉豪",
		"Latitude": 29.808031,
		"Longitude": 106.40682700000001
	},
	{
		"Id": "G000100",
		"ShopGroup": "德克士",
		"Address": "重庆市北碚区云泉路6号(重百旁)",
		"District": "北碚区",
		"Function": "刷卡消费",
		"Type": "畅通钱包",
		"Withdraw": "原价单品享受8.5折优惠(卡友日除外)",
		"ShopName": "龙飞",
		"Latitude": 29.827158000000001,
		"Longitude": 106.44454
	},
	{
		"Id": "G000101",
		"ShopGroup": "国美电器",
		"Address": "重庆市北碚区胜利村18号",
		"District": "北碚区",
		"Function": "刷卡消费(提供充值服务)",
		"Type": "畅享账户",
		"Withdraw": "千元以下商品享受9.5折优惠",
		"ShopName": "北碚店",
		"Latitude": 29.830029,
		"Longitude": 106.44183200000001
	},
	{
		"Id": "G000102",
		"ShopGroup": "豪客来",
		"Address": "重庆北碚区嘉陵风情步行街28号雄风新天地二楼",
		"District": "北碚区",
		"Function": "刷卡消费",
		"Type": "畅通钱包",
		"Withdraw": "9.5折",
		"ShopName": "嘉陵风情步行街餐厅",
		"Latitude": 29.807003999999999,
		"Longitude": 106.40840900000001
	},
	{
		"Id": "G000103",
		"ShopGroup": "好客万家(复兴店)",
		"Address": "重庆市北碚区水土复兴镇方正大道465号",
		"District": "北碚区",
		"Function": "刷卡消费",
		"Type": "畅通钱包/畅享账户",
		"Withdraw": "",
		"ShopName": "好客万家(复兴店)",
		"Latitude": 29.809614,
		"Longitude": 106.547197
	},
	{
		"Id": "G000104",
		"ShopGroup": "华生园",
		"Address": "重庆市北碚区梨园村78号附13号",
		"District": "北碚区",
		"Function": "刷卡消费",
		"Type": "畅通钱包",
		"Withdraw": "享受9.5折优惠",
		"ShopName": "北碚区门诊",
		"Latitude": 29.830477999999999,
		"Longitude": 106.43987799999999
	},
	{
		"Id": "G000105",
		"ShopGroup": "肯德基",
		"Address": "重庆重庆市北碚区重庆市北碚区嘉陵风情街33号1-1号一层",
		"District": "北碚区",
		"Function": "刷卡消费",
		"Type": "畅通钱包",
		"Withdraw": "暂无折扣",
		"ShopName": "CHQ154雄风-01",
		"Latitude": 29.866596000000001,
		"Longitude": 106.520342
	},
	{
		"Id": "G000106",
		"ShopGroup": "肯德基",
		"Address": "重庆重庆市北碚区重庆市北碚区天生新村63号缙麓商都A栋1-2层",
		"District": "北碚区",
		"Function": "刷卡消费",
		"Type": "畅通钱包",
		"Withdraw": "暂无折扣",
		"ShopName": "CHQ059缙麓-01",
		"Latitude": 29.832380000000001,
		"Longitude": 106.443079
	},
	{
		"Id": "G000107",
		"ShopGroup": "廖记棒棒鸡",
		"Address": "北碚区城南新区嘉陵风情街33号雄风百货广场负一楼",
		"District": "北碚区",
		"Function": "刷卡消费",
		"Type": "畅通钱包",
		"Withdraw": "享受9.2折优惠",
		"ShopName": "雄风",
		"Latitude": 29.80752,
		"Longitude": 106.408243
	},
	{
		"Id": "G000108",
		"ShopGroup": "廖记棒棒鸡",
		"Address": "北碚区文星湾旺德大厦(永辉超市附近)",
		"District": "北碚区",
		"Function": "刷卡消费",
		"Type": "畅通钱包",
		"Withdraw": "享受9.2折优惠",
		"ShopName": "旺德店",
		"Latitude": 29.837112000000001,
		"Longitude": 106.440704
	},
	{
		"Id": "G000109",
		"ShopGroup": "廖记棒棒鸡",
		"Address": "北碚区碚峡路一号转角处门市部门面",
		"District": "北碚区",
		"Function": "刷卡消费",
		"Type": "畅通钱包",
		"Withdraw": "享受9.2折优惠",
		"ShopName": "碚峡路",
		"Latitude": 29.833445999999999,
		"Longitude": 106.450649
	},
	{
		"Id": "G000110",
		"ShopGroup": "廖记棒棒鸡",
		"Address": "北碚区胜利路33号(长途车站乡村基旁)",
		"District": "北碚区",
		"Function": "刷卡消费",
		"Type": "畅通钱包",
		"Withdraw": "享受9.2折优惠",
		"ShopName": "胜利路",
		"Latitude": 29.829901,
		"Longitude": 106.443979
	},
	{
		"Id": "G000111",
		"ShopGroup": "廖记棒棒鸡",
		"Address": "北碚区长途车站附近",
		"District": "北碚区",
		"Function": "刷卡消费",
		"Type": "畅通钱包",
		"Withdraw": "享受9.2折优惠",
		"ShopName": "鱼塘湾",
		"Latitude": 29.866596000000001,
		"Longitude": 106.520342
	},
	{
		"Id": "G000112",
		"ShopGroup": "龙湖人家",
		"Address": "北碚区城南嘉陵风情步行街UME电影院旁",
		"District": "北碚区",
		"Function": "刷卡消费",
		"Type": "畅通钱包",
		"Withdraw": "享受9.5折优惠",
		"ShopName": "北碚店",
		"Latitude": 29.807787999999999,
		"Longitude": 106.407546
	},
	{
		"Id": "G000113",
		"ShopGroup": "罗森",
		"Address": "重庆市北碚区蔡家组团M38块地",
		"District": "北碚区",
		"Function": "刷卡消费(提供充值服务)",
		"Type": "畅通钱包",
		"Withdraw": "暂无折扣",
		"ShopName": "金科店",
		"Latitude": 29.866596000000001,
		"Longitude": 106.520342
	},
	{
		"Id": "G000114",
		"ShopGroup": "绿道面馆",
		"Address": "重庆市北碚区公园村26号",
		"District": "北碚区",
		"Function": "刷卡消费",
		"Type": "畅通钱包",
		"Withdraw": "享受9.5折优惠",
		"ShopName": "绿道面馆",
		"Latitude": 29.835096,
		"Longitude": 106.447562
	},
	{
		"Id": "G000115",
		"ShopGroup": "耍家猪脚(步行街店)",
		"Address": "重庆市北碚区城南嘉陵风情步行街",
		"District": "北碚区",
		"Function": "刷卡消费",
		"Type": "畅通钱包",
		"Withdraw": "",
		"ShopName": "步行街店",
		"Latitude": 29.807787999999999,
		"Longitude": 106.407546
	},
	{
		"Id": "G000116",
		"ShopGroup": "耍家猪脚(胜利路店)",
		"Address": "重庆市北碚区胜利路3号保利电影院旁",
		"District": "北碚区",
		"Function": "刷卡消费",
		"Type": "畅通钱包",
		"Withdraw": "",
		"ShopName": "胜利路店",
		"Latitude": 29.830396,
		"Longitude": 106.444377
	},
	{
		"Id": "G000117",
		"ShopGroup": "苏宁电器",
		"Address": "重庆市北碚区碚峡路121-161号",
		"District": "北碚区",
		"Function": "刷卡消费",
		"Type": "畅享账户",
		"Withdraw": "暂无折扣",
		"ShopName": "北碚碚峡路店",
		"Latitude": 29.830117000000001,
		"Longitude": 106.448047
	},
	{
		"Id": "G000118",
		"ShopGroup": "天友乳业集团",
		"Address": "北碚区云泉路29号附2号",
		"District": "北碚区",
		"Function": "刷卡消费",
		"Type": "畅通钱包",
		"Withdraw": "暂无折扣",
		"ShopName": "云泉路正街健康生活馆",
		"Latitude": 29.827985999999999,
		"Longitude": 106.443045
	},
	{
		"Id": "G000119",
		"ShopGroup": "天友乳业集团",
		"Address": "歇马",
		"District": "北碚区",
		"Function": "刷卡消费",
		"Type": "畅通钱包",
		"Withdraw": "暂无折扣",
		"ShopName": "何开英服务中心",
		"Latitude": 32.969456000000001,
		"Longitude": 106.993279
	},
	{
		"Id": "G000120",
		"ShopGroup": "天友乳业集团",
		"Address": "北碚九院防疫站旁",
		"District": "北碚区",
		"Function": "刷卡消费",
		"Type": "畅通钱包",
		"Withdraw": "暂无折扣",
		"ShopName": "唐小英服务中心",
		"Latitude": 29.866596000000001,
		"Longitude": 106.520342
	},
	{
		"Id": "G000121",
		"ShopGroup": "天友乳业集团",
		"Address": "北碚静观镇",
		"District": "北碚区",
		"Function": "刷卡消费",
		"Type": "畅通钱包",
		"Withdraw": "暂无折扣",
		"ShopName": "李光强服务中心",
		"Latitude": 29.901838999999999,
		"Longitude": 106.576617
	},
	{
		"Id": "G000122",
		"ShopGroup": "天友乳业集团",
		"Address": "北碚区嘉陵村130号附9号",
		"District": "北碚区",
		"Function": "刷卡消费",
		"Type": "畅通钱包",
		"Withdraw": "暂无折扣",
		"ShopName": "金马小区健康生活馆",
		"Latitude": 29.824933999999999,
		"Longitude": 106.449983
	},
	{
		"Id": "G000123",
		"ShopGroup": "天友乳业集团",
		"Address": "文星湾",
		"District": "北碚区",
		"Function": "刷卡消费",
		"Type": "畅通钱包",
		"Withdraw": "暂无折扣",
		"ShopName": "周妮服务中心",
		"Latitude": 29.838511,
		"Longitude": 106.442831
	},
	{
		"Id": "G000124",
		"ShopGroup": "天友乳业集团",
		"Address": "城南缙水楼台",
		"District": "北碚区",
		"Function": "刷卡消费",
		"Type": "畅通钱包",
		"Withdraw": "暂无折扣",
		"ShopName": "杨冬服务中心",
		"Latitude": 29.811184000000001,
		"Longitude": 106.40767200000001
	},
	{
		"Id": "G000125",
		"ShopGroup": "天友乳业集团",
		"Address": "北碚嘉茵苑",
		"District": "北碚区",
		"Function": "刷卡消费",
		"Type": "畅通钱包",
		"Withdraw": "暂无折扣",
		"ShopName": "史明艳服务中心",
		"Latitude": 29.807162000000002,
		"Longitude": 106.39892
	},
	{
		"Id": "G000126",
		"ShopGroup": "天友乳业集团",
		"Address": "北温泉9号",
		"District": "北碚区",
		"Function": "刷卡消费",
		"Type": "畅通钱包",
		"Withdraw": "暂无折扣",
		"ShopName": "张英服务中心",
		"Latitude": 29.829165,
		"Longitude": 106.422937
	},
	{
		"Id": "G000127",
		"ShopGroup": "天友乳业集团",
		"Address": "北碚区金华路52号",
		"District": "北碚区",
		"Function": "刷卡消费",
		"Type": "畅通钱包",
		"Withdraw": "暂无折扣",
		"ShopName": "金华路健康生活馆",
		"Latitude": 29.836694000000001,
		"Longitude": 106.431724
	},
	{
		"Id": "G000128",
		"ShopGroup": "天友乳业集团",
		"Address": "蔡家",
		"District": "北碚区",
		"Function": "刷卡消费",
		"Type": "畅通钱包",
		"Withdraw": "暂无折扣",
		"ShopName": "杨雪梅服务中心",
		"Latitude": 30.627402,
		"Longitude": 115.230643
	},
	{
		"Id": "G000129",
		"ShopGroup": "天友乳业集团",
		"Address": "北碚区两江民居公租房",
		"District": "北碚区",
		"Function": "刷卡消费",
		"Type": "畅通钱包",
		"Withdraw": "暂无折扣",
		"ShopName": "王银帆服务中心",
		"Latitude": 29.866596000000001,
		"Longitude": 106.520342
	},
	{
		"Id": "G000130",
		"ShopGroup": "天友乳业集团",
		"Address": "北碚红雨花园",
		"District": "北碚区",
		"Function": "刷卡消费",
		"Type": "畅通钱包",
		"Withdraw": "暂无折扣",
		"ShopName": "蒋浩军服务中心",
		"Latitude": 29.80808,
		"Longitude": 106.41277700000001
	},
	{
		"Id": "G000131",
		"ShopGroup": "天友乳业集团",
		"Address": "北碚同兴北路江山假日15栋",
		"District": "北碚区",
		"Function": "刷卡消费",
		"Type": "畅通钱包",
		"Withdraw": "暂无折扣",
		"ShopName": "李小红加盟",
		"Latitude": 29.736335,
		"Longitude": 106.464
	},
	{
		"Id": "G000132",
		"ShopGroup": "天友乳业集团",
		"Address": "北碚城南中医院将军路416号",
		"District": "北碚区",
		"Function": "刷卡消费",
		"Type": "畅通钱包",
		"Withdraw": "暂无折扣",
		"ShopName": "袁芳芳加盟",
		"Latitude": 29.810081,
		"Longitude": 106.418761
	},
	{
		"Id": "G000133",
		"ShopGroup": "天友乳业集团",
		"Address": "北碚区碚峡路140-9",
		"District": "北碚区",
		"Function": "刷卡消费",
		"Type": "畅通钱包",
		"Withdraw": "暂无折扣",
		"ShopName": "甘建勇服务",
		"Latitude": 29.829267000000002,
		"Longitude": 106.44702700000001
	},
	{
		"Id": "G000134",
		"ShopGroup": "天友乳业集团",
		"Address": "北碚区文星湾旺德旺城",
		"District": "北碚区",
		"Function": "刷卡消费",
		"Type": "畅通钱包",
		"Withdraw": "暂无折扣",
		"ShopName": "胡海服务中心",
		"Latitude": 29.837602,
		"Longitude": 106.440704
	},
	{
		"Id": "G000135",
		"ShopGroup": "天友乳业集团",
		"Address": "北碚雨台花园",
		"District": "北碚区",
		"Function": "刷卡消费",
		"Type": "畅通钱包",
		"Withdraw": "暂无折扣",
		"ShopName": "罗英俊服务中心",
		"Latitude": 29.812995000000001,
		"Longitude": 106.41162
	},
	{
		"Id": "G000136",
		"ShopGroup": "乡村基",
		"Address": "重庆市北碚区北温泉街道双远大道35号一层部分",
		"District": "北碚区",
		"Function": "刷卡消费",
		"Type": "畅通钱包",
		"Withdraw": "享受9.5折优惠",
		"ShopName": "双远大道餐厅",
		"Latitude": 29.838213,
		"Longitude": 106.428326
	},
	{
		"Id": "G000137",
		"ShopGroup": "张鸭子",
		"Address": "北碚区嘉陵风情街9号",
		"District": "北碚区",
		"Function": "刷卡消费",
		"Type": "畅通钱包",
		"Withdraw": "享受9.5折优惠",
		"ShopName": "风情街",
		"Latitude": 29.866596000000001,
		"Longitude": 106.520342
	},
	{
		"Id": "G000138",
		"ShopGroup": "张鸭子",
		"Address": "北碚区新星路2号",
		"District": "北碚区",
		"Function": "刷卡消费",
		"Type": "畅通钱包",
		"Withdraw": "享受9.5折优惠",
		"ShopName": "新星路",
		"Latitude": 29.828323000000001,
		"Longitude": 106.44280000000001
	},
	{
		"Id": "G000139",
		"ShopGroup": "张鸭子",
		"Address": "北碚区公交五公司老办公楼14号",
		"District": "北碚区",
		"Function": "刷卡消费",
		"Type": "畅通钱包",
		"Withdraw": "享受9.5折优惠",
		"ShopName": "碚峡路",
		"Latitude": 29.866596000000001,
		"Longitude": 106.520342
	},
	{
		"Id": "G000140",
		"ShopGroup": "中百仓储",
		"Address": "北碚区城南阳光嘉源冯时路291,293,295号商铺",
		"District": "北碚区",
		"Function": "刷卡消费(提供充值服务)",
		"Type": "畅通钱包",
		"Withdraw": "部分商品享受9.5折优惠",
		"ShopName": "阳光嘉源店",
		"Latitude": 29.866596000000001,
		"Longitude": 106.520342
	},
	{
		"Id": "G000141",
		"ShopGroup": "中百仓储",
		"Address": "重庆市北碚区金华路409号",
		"District": "北碚区",
		"Function": "刷卡消费(提供充值服务)",
		"Type": "畅通钱包",
		"Withdraw": "部分商品享受9.5折优惠",
		"ShopName": "竹芸店",
		"Latitude": 29.822966000000001,
		"Longitude": 106.413836
	},
	{
		"Id": "G000142",
		"ShopGroup": "中百仓储",
		"Address": "重庆市北碚区牌坊湾10号附2,3号商业门面",
		"District": "北碚区",
		"Function": "刷卡消费(提供充值服务)",
		"Type": "畅通钱包",
		"Withdraw": "部分商品享受9.5折优惠",
		"ShopName": "牌坊湾店",
		"Latitude": 29.831724999999999,
		"Longitude": 106.453722
	},
	{
		"Id": "G000143",
		"ShopGroup": "中百仓储",
		"Address": "重庆市北碚区金华路328号20幢附6号",
		"District": "北碚区",
		"Function": "刷卡消费(提供充值服务)",
		"Type": "畅通钱包",
		"Withdraw": "部分商品享受9.5折优惠",
		"ShopName": "北泉花园店",
		"Latitude": 29.831085999999999,
		"Longitude": 106.422408
	},
	{
		"Id": "G000144",
		"ShopGroup": "中石化",
		"Address": "重庆市北碚区风火墙双柏树",
		"District": "北碚区",
		"Function": "刷卡消费",
		"Type": "畅通钱包/畅享账户",
		"Withdraw": "暂无折扣",
		"ShopName": "双柏树加油站",
		"Latitude": 29.866596000000001,
		"Longitude": 106.520342
	},
	{
		"Id": "G000145",
		"ShopGroup": "中石化",
		"Address": "重庆市北碚区童家溪新农村",
		"District": "北碚区",
		"Function": "刷卡消费",
		"Type": "畅通钱包/畅享账户",
		"Withdraw": "暂无折扣",
		"ShopName": "兴隆加油站",
		"Latitude": 29.688839000000002,
		"Longitude": 106.456074
	},
	{
		"Id": "G000146",
		"ShopGroup": "中石油",
		"Address": "北碚区双柏路101号",
		"District": "北碚区",
		"Function": "刷卡消费",
		"Type": "畅通钱包/畅享账户",
		"Withdraw": "暂无折扣",
		"ShopName": "北碚区双柏树加油站",
		"Latitude": 29.815867000000001,
		"Longitude": 106.414967
	},
	{
		"Id": "G000147",
		"ShopGroup": "中石油",
		"Address": "重庆市北碚区七一桥头",
		"District": "北碚区",
		"Function": "刷卡消费",
		"Type": "畅通钱包/畅享账户",
		"Withdraw": "暂无折扣",
		"ShopName": "北碚(七一桥)加油站",
		"Latitude": 29.866596000000001,
		"Longitude": 106.520342
	},
	{
		"Id": "G000148",
		"ShopGroup": "重百,新世纪",
		"Address": "重庆市北碚区嘉陵风情步行街7号负一楼",
		"District": "北碚区",
		"Function": "刷卡消费",
		"Type": "畅享账户",
		"Withdraw": "暂无折扣",
		"ShopName": "重庆商社新世纪百货连锁经营公司北碚新城店",
		"Latitude": 29.808651999999999,
		"Longitude": 106.406361
	},
	{
		"Id": "G000149",
		"ShopGroup": "重百,新世纪",
		"Address": "重庆市北碚区北碚区天生新村63号",
		"District": "北碚区",
		"Function": "刷卡消费",
		"Type": "畅享账户",
		"Withdraw": "暂无折扣",
		"ShopName": "重庆百货大楼股份公司超市分公司北碚中心店",
		"Latitude": 29.876577000000001,
		"Longitude": 106.394683
	},
	{
		"Id": "G000150",
		"ShopGroup": "重百,新世纪",
		"Address": "重庆市北碚区北碚区歇马镇歇马路1-12号",
		"District": "北碚区",
		"Function": "刷卡消费",
		"Type": "畅享账户",
		"Withdraw": "暂无折扣",
		"ShopName": "重庆百货大楼股份有限公司超市分公司歇马店",
		"Latitude": 29.772397000000002,
		"Longitude": 106.37908899999999
	},
	{
		"Id": "G000151",
		"ShopGroup": "重百,新世纪",
		"Address": "重庆市北碚区北碚云泉路6号",
		"District": "北碚区",
		"Function": "刷卡消费",
		"Type": "畅享账户",
		"Withdraw": "暂无折扣",
		"ShopName": "重百大楼股份有限公司超市分公司北碚二店",
		"Latitude": 29.827158000000001,
		"Longitude": 106.44454
	},
	{
		"Id": "G000152",
		"ShopGroup": "重百,新世纪",
		"Address": "重庆市北碚区北碚区中山路66号重百新店",
		"District": "北碚区",
		"Function": "刷卡消费",
		"Type": "畅享账户",
		"Withdraw": "暂无折扣",
		"ShopName": "重百北碚商场",
		"Latitude": 29.832836,
		"Longitude": 106.444784
	},
	{
		"Id": "G000153",
		"ShopGroup": "重百,新世纪",
		"Address": "重庆市北碚区中山路66号",
		"District": "北碚区",
		"Function": "刷卡消费",
		"Type": "畅享账户",
		"Withdraw": "暂无折扣",
		"ShopName": "重百超市分公司北碚一店",
		"Latitude": 29.832836,
		"Longitude": 106.444784
	},
	{
		"Id": "G000154",
		"ShopGroup": "重百,新世纪",
		"Address": "重庆市北碚区北碚区碚峡路139号",
		"District": "北碚区",
		"Function": "刷卡消费",
		"Type": "畅享账户",
		"Withdraw": "暂无折扣",
		"ShopName": "重庆商社新世纪百货连锁经营公司碚峡路店",
		"Latitude": 29.830157,
		"Longitude": 106.448077
	},
	{
		"Id": "G000155",
		"ShopGroup": "重百,新世纪",
		"Address": "重庆市北碚区龙凤桥店",
		"District": "北碚区",
		"Function": "刷卡消费",
		"Type": "畅享账户",
		"Withdraw": "暂无折扣",
		"ShopName": "重庆百货大楼股份公司超市分公司龙凤桥店",
		"Latitude": 29.822897000000001,
		"Longitude": 106.443505
	},
	{
		"Id": "G000156",
		"ShopGroup": "重庆市缙云山索道有限公司",
		"Address": "缙云山索道",
		"District": "北碚区",
		"Function": "刷卡消费",
		"Type": "畅通钱包",
		"Withdraw": "享受9折优惠",
		"ShopName": "缙云山索道-03",
		"Latitude": 29.843304,
		"Longitude": 106.424288
	},
	{
		"Id": "G000157",
		"ShopGroup": "重庆市缙云山索道有限公司",
		"Address": "缙云山索道",
		"District": "北碚区",
		"Function": "刷卡消费",
		"Type": "畅通钱包",
		"Withdraw": "享受9折优惠",
		"ShopName": "缙云山索道-02",
		"Latitude": 29.843304,
		"Longitude": 106.424288
	},
	{
		"Id": "G000158",
		"ShopGroup": "重庆市缙云山索道有限公司",
		"Address": "缙云山索道",
		"District": "北碚区",
		"Function": "刷卡消费",
		"Type": "畅通钱包",
		"Withdraw": "享受9折优惠",
		"ShopName": "缙云山索道-01",
		"Latitude": 29.843304,
		"Longitude": 106.424288
	},
	{
		"Id": "G000159",
		"ShopGroup": "重庆优觅电影有限公司",
		"Address": "重庆市北碚康宁路58号嘉陵风情步行街4-5楼",
		"District": "北碚区",
		"Function": "刷卡消费",
		"Type": "畅通钱包",
		"Withdraw": "单次购票9折优惠(可直接购买会员卡无折扣)",
		"ShopName": "北碚店",
		"Latitude": 29.808584,
		"Longitude": 106.406215
	},
	{
		"Id": "G000160",
		"ShopGroup": "紫燕百味鸡",
		"Address": "北部新区龙寿路新和医院旁",
		"District": "北碚区",
		"Function": "刷卡消费",
		"Type": "畅通钱包",
		"Withdraw": "享受9.5折优惠",
		"ShopName": "人和",
		"Latitude": 29.656072000000002,
		"Longitude": 106.571124
	},
	{
		"Id": "G000161",
		"ShopGroup": "紫燕百味鸡",
		"Address": "北碚区云泉路七中对对面",
		"District": "北碚区",
		"Function": "刷卡消费",
		"Type": "畅通钱包",
		"Withdraw": "享受9.5折优惠",
		"ShopName": "云泉路",
		"Latitude": 29.828603999999999,
		"Longitude": 106.44288
	},
	{
		"Id": "G000162",
		"ShopGroup": "紫燕百味鸡",
		"Address": "北碚区团山路菜市场对面",
		"District": "北碚区",
		"Function": "刷卡消费",
		"Type": "畅通钱包",
		"Withdraw": "享受9.5折优惠",
		"ShopName": "团山路",
		"Latitude": 29.837467,
		"Longitude": 106.431785
	},
	{
		"Id": "G000163",
		"ShopGroup": "紫燕百味鸡",
		"Address": "北碚蔡家公租房渝北超市出口",
		"District": "北碚区",
		"Function": "刷卡消费",
		"Type": "畅通钱包",
		"Withdraw": "享受9.5折优惠",
		"ShopName": "蔡家",
		"Latitude": 29.866596000000001,
		"Longitude": 106.520342
	},
	{
		"Id": "G000164",
		"ShopGroup": "紫燕百味鸡",
		"Address": "北碚区人民路竟发商场出口",
		"District": "北碚区",
		"Function": "刷卡消费",
		"Type": "畅通钱包",
		"Withdraw": "享受9.5折优惠",
		"ShopName": "碚峡路",
		"Latitude": 29.826886999999999,
		"Longitude": 106.446167
	},
	{
		"Id": "G000165",
		"ShopGroup": "紫燕百味鸡",
		"Address": "北部新区树兰路永辉超市旁50米",
		"District": "北碚区",
		"Function": "刷卡消费",
		"Type": "畅通钱包",
		"Withdraw": "享受9.5折优惠",
		"ShopName": "龙头寺",
		"Latitude": 29.606940999999999,
		"Longitude": 106.555757
	},
	{
		"Id": "G000166",
		"ShopGroup": "紫燕百味鸡",
		"Address": "北碚区天生丽街永辉超市出口",
		"District": "北碚区",
		"Function": "刷卡消费",
		"Type": "畅通钱包",
		"Withdraw": "享受9.5折优惠",
		"ShopName": "天生",
		"Latitude": 29.837018,
		"Longitude": 106.44072300000001
	},
	{
		"Id": "G000167",
		"ShopGroup": "紫燕百味鸡",
		"Address": "北碚区龙凤桥菜市场出口",
		"District": "北碚区",
		"Function": "刷卡消费",
		"Type": "畅通钱包",
		"Withdraw": "享受9.5折优惠",
		"ShopName": "龙凤桥",
		"Latitude": 29.822897000000001,
		"Longitude": 106.443505
	},
	{
		"Id": "G000168",
		"ShopGroup": "紫燕百味鸡",
		"Address": "北碚区胜利路竟发商场出口50米",
		"District": "北碚区",
		"Function": "刷卡消费",
		"Type": "畅通钱包",
		"Withdraw": "享受9.5折优惠",
		"ShopName": "胜利路",
		"Latitude": 29.834598,
		"Longitude": 106.446989
	},
	{
		"Id": "G000169",
		"ShopGroup": "紫燕百味鸡",
		"Address": "北碚区歇马镇菜市场出口",
		"District": "北碚区",
		"Function": "刷卡消费",
		"Type": "畅通钱包",
		"Withdraw": "享受9.5折优惠",
		"ShopName": "歇马",
		"Latitude": 29.770710999999999,
		"Longitude": 106.375851
	},
	{
		"Id": "G000170",
		"ShopGroup": "肯德基",
		"Address": "重庆重庆市北部新区金开大道70号星光天地一层27号商铺",
		"District": "北部新区",
		"Function": "刷卡消费",
		"Type": "畅通钱包",
		"Withdraw": "暂无折扣",
		"ShopName": "KFCCHQ193金开大道",
		"Latitude": 29.634626000000001,
		"Longitude": 106.53942499999999
	},
	{
		"Id": "G000171",
		"ShopGroup": "紫燕百味鸡",
		"Address": "大渡口区天辰美苑114号",
		"District": "大渡口",
		"Function": "刷卡消费",
		"Type": "畅通钱包",
		"Withdraw": "享受9.5折优惠",
		"ShopName": "天辰美苑店",
		"Latitude": 29.464644,
		"Longitude": 106.484827
	},
	{
		"Id": "G000172",
		"ShopGroup": "国美电器",
		"Address": "重庆市大渡口区新山村街道钢花路540号",
		"District": "大渡口区",
		"Function": "刷卡消费(提供充值服务)",
		"Type": "畅享账户",
		"Withdraw": "千元以下商品享受9.5折优惠",
		"ShopName": "大渡口店",
		"Latitude": 29.486536000000001,
		"Longitude": 106.493612
	},
	{
		"Id": "G000173",
		"ShopGroup": "国美电器",
		"Address": "重庆市大渡口区新山村街道钢花路540号",
		"District": "大渡口区",
		"Function": "刷卡消费(提供充值服务)",
		"Type": "畅享账户",
		"Withdraw": "千元以下商品享受9.5折优惠",
		"ShopName": "大渡口店",
		"Latitude": 29.486536000000001,
		"Longitude": 106.493612
	},
	{
		"Id": "G000174",
		"ShopGroup": "豪客来",
		"Address": "重庆市大渡口区松青路1029号",
		"District": "大渡口区",
		"Function": "刷卡消费",
		"Type": "畅通钱包",
		"Withdraw": "9.5折",
		"ShopName": "大渡口步行街餐厅",
		"Latitude": 29.482861,
		"Longitude": 106.486861
	},
	{
		"Id": "G000175",
		"ShopGroup": "华生园",
		"Address": "大渡口翠柏路88-38",
		"District": "大渡口区",
		"Function": "刷卡消费",
		"Type": "畅通钱包",
		"Withdraw": "享受9.5折优惠",
		"ShopName": "翠柏路",
		"Latitude": 29.484144000000001,
		"Longitude": 106.481437
	},
	{
		"Id": "G000176",
		"ShopGroup": "华生园",
		"Address": "大渡口区文体路141-1",
		"District": "大渡口区",
		"Function": "刷卡消费",
		"Type": "畅通钱包",
		"Withdraw": "享受9.5折优惠",
		"ShopName": "阳光花园",
		"Latitude": 29.489476,
		"Longitude": 106.486496
	},
	{
		"Id": "G000177",
		"ShopGroup": "华生园",
		"Address": "大渡口区翠柏路37号附38号",
		"District": "大渡口区",
		"Function": "刷卡消费",
		"Type": "畅通钱包",
		"Withdraw": "享受9.5折优惠",
		"ShopName": "轻轨",
		"Latitude": 29.478169000000001,
		"Longitude": 106.482435
	},
	{
		"Id": "G000178",
		"ShopGroup": "华生园",
		"Address": "大渡口区金桥路3号附8号",
		"District": "大渡口区",
		"Function": "刷卡消费",
		"Type": "畅通钱包",
		"Withdraw": "享受9.5折优惠",
		"ShopName": "古渡春色",
		"Latitude": 29.463315999999999,
		"Longitude": 106.486175
	},
	{
		"Id": "G000179",
		"ShopGroup": "肯德基",
		"Address": "重庆重庆市大渡口区松青路1029#国瑞城1层肯德基餐厅",
		"District": "大渡口区",
		"Function": "刷卡消费",
		"Type": "畅通钱包",
		"Withdraw": "暂无折扣",
		"ShopName": "KFCCHQ071国瑞大渡口区松青路店",
		"Latitude": 29.482126999999998,
		"Longitude": 106.485812
	},
	{
		"Id": "G000180",
		"ShopGroup": "廖记棒棒鸡",
		"Address": "大渡口区春晖路天辰华府12-5号",
		"District": "大渡口区",
		"Function": "刷卡消费",
		"Type": "畅通钱包",
		"Withdraw": "享受9.2折优惠",
		"ShopName": "天辰",
		"Latitude": 29.478548,
		"Longitude": 106.488292
	},
	{
		"Id": "G000181",
		"ShopGroup": "廖记棒棒鸡",
		"Address": "大渡口区步行街国瑞城新世纪旁",
		"District": "大渡口区",
		"Function": "刷卡消费",
		"Type": "畅通钱包",
		"Withdraw": "享受9.2折优惠",
		"ShopName": "国瑞城",
		"Latitude": 29.482126999999998,
		"Longitude": 106.485812
	},
	{
		"Id": "G000182",
		"ShopGroup": "廖记棒棒鸡",
		"Address": "九龙坡区轻港佳苑9号左边(轻轨马王场站)",
		"District": "大渡口区",
		"Function": "刷卡消费",
		"Type": "畅通钱包",
		"Withdraw": "享受9.2折优惠",
		"ShopName": "马王场",
		"Latitude": 29.499744,
		"Longitude": 106.49498199999999
	},
	{
		"Id": "G000183",
		"ShopGroup": "廖记棒棒鸡",
		"Address": "九龙坡龙泉村154号31幢(中百超市朵力名都店对面)",
		"District": "大渡口区",
		"Function": "刷卡消费",
		"Type": "畅通钱包",
		"Withdraw": "享受9.2折优惠",
		"ShopName": "朵力",
		"Latitude": 29.500142,
		"Longitude": 106.49147499999999
	},
	{
		"Id": "G000184",
		"ShopGroup": "廖记棒棒鸡",
		"Address": "大渡口区步行街松青路1046号金地广场",
		"District": "大渡口区",
		"Function": "刷卡消费",
		"Type": "畅通钱包",
		"Withdraw": "享受9.2折优惠",
		"ShopName": "金地",
		"Latitude": 29.486929,
		"Longitude": 106.48424
	},
	{
		"Id": "G000185",
		"ShopGroup": "廖记棒棒鸡",
		"Address": "大渡口区大堰农贸市场外5#",
		"District": "大渡口区",
		"Function": "刷卡消费",
		"Type": "畅通钱包",
		"Withdraw": "享受9.2折优惠",
		"ShopName": "大堰",
		"Latitude": 29.494565000000001,
		"Longitude": 106.500906
	},
	{
		"Id": "G000186",
		"ShopGroup": "廖记棒棒鸡",
		"Address": "大渡口文体路口(顺祥壹街区)",
		"District": "大渡口区",
		"Function": "刷卡消费",
		"Type": "畅通钱包",
		"Withdraw": "享受9.2折优惠",
		"ShopName": "文体路",
		"Latitude": 29.489823000000001,
		"Longitude": 106.49169500000001
	},
	{
		"Id": "G000187",
		"ShopGroup": "廖记棒棒鸡",
		"Address": "大渡口钢花路66号1﹟1-3号(轻轨平安站)",
		"District": "大渡口区",
		"Function": "刷卡消费",
		"Type": "畅通钱包",
		"Withdraw": "享受9.2折优惠",
		"ShopName": "建设村",
		"Latitude": 29.495570000000001,
		"Longitude": 106.493229
	},
	{
		"Id": "G000188",
		"ShopGroup": "三峡报刊亭",
		"Address": "中梁山田坝山花照相馆(报刊亭号5-61)",
		"District": "大渡口区",
		"Function": "刷卡消费(提供充值服务)",
		"Type": "畅通钱包",
		"Withdraw": "购书享受6折起优惠",
		"ShopName": "三峡报刊亭",
		"Latitude": 29.466975000000001,
		"Longitude": 106.43849899999999
	},
	{
		"Id": "G000189",
		"ShopGroup": "三峡报刊亭",
		"Address": "中梁山玉清寺中国信合(报刊亭号5-63)",
		"District": "大渡口区",
		"Function": "刷卡消费(提供充值服务)",
		"Type": "畅通钱包",
		"Withdraw": "购书享受6折起优惠",
		"ShopName": "三峡报刊亭",
		"Latitude": 29.465775000000001,
		"Longitude": 106.45127599999999
	},
	{
		"Id": "G000190",
		"ShopGroup": "三峡报刊亭",
		"Address": "中梁山玉清寺溜冰场(报刊亭号5-64)",
		"District": "大渡口区",
		"Function": "刷卡消费(提供充值服务)",
		"Type": "畅通钱包",
		"Withdraw": "购书享受6折起优惠",
		"ShopName": "三峡报刊亭",
		"Latitude": 29.469619999999999,
		"Longitude": 106.440895
	},
	{
		"Id": "G000191",
		"ShopGroup": "三峡报刊亭",
		"Address": "中梁山粮店斜对面(报刊亭号5-60)",
		"District": "大渡口区",
		"Function": "刷卡消费(提供充值服务)",
		"Type": "畅通钱包",
		"Withdraw": "购书享受6折起优惠",
		"ShopName": "三峡报刊亭",
		"Latitude": 29.469619999999999,
		"Longitude": 106.440895
	},
	{
		"Id": "G000192",
		"ShopGroup": "三峡报刊亭",
		"Address": "重庆电大大门旁(报刊亭号5-58)",
		"District": "大渡口区",
		"Function": "刷卡消费(提供充值服务)",
		"Type": "畅通钱包",
		"Withdraw": "购书享受6折起优惠",
		"ShopName": "三峡报刊亭",
		"Latitude": 29.502901000000001,
		"Longitude": 106.45963399999999
	},
	{
		"Id": "G000193",
		"ShopGroup": "时报爱达",
		"Address": "重庆市大渡口区祥福路92号竹园小区9幢1-1物业用房",
		"District": "大渡口区",
		"Function": "刷卡消费(提供充值服务)",
		"Type": "畅通钱包",
		"Withdraw": "暂无折扣",
		"ShopName": "竹园小区",
		"Latitude": 29.419626000000001,
		"Longitude": 106.49450400000001
	},
	{
		"Id": "G000194",
		"ShopGroup": "时报爱达",
		"Address": "重庆市大渡口区钢花路68号1栋1楼3号",
		"District": "大渡口区",
		"Function": "刷卡消费(提供充值服务)",
		"Type": "畅通钱包",
		"Withdraw": "暂无折扣",
		"ShopName": "美德佳园",
		"Latitude": 29.494880999999999,
		"Longitude": 106.493138
	},
	{
		"Id": "G000195",
		"ShopGroup": "时报爱达",
		"Address": "重庆市大渡口区祥福路92号竹园小区9幢1-1物业用房",
		"District": "大渡口区",
		"Function": "刷卡消费(提供充值服务)",
		"Type": "畅通钱包",
		"Withdraw": "暂无折扣",
		"ShopName": "竹园小区",
		"Latitude": 29.419626000000001,
		"Longitude": 106.49450400000001
	},
	{
		"Id": "G000196",
		"ShopGroup": "时报爱达",
		"Address": "重庆市大渡口区祥福路92号竹园小区9幢1-1物业用房",
		"District": "大渡口区",
		"Function": "刷卡消费(提供充值服务)",
		"Type": "畅通钱包",
		"Withdraw": "暂无折扣",
		"ShopName": "竹园小区",
		"Latitude": 29.419626000000001,
		"Longitude": 106.49450400000001
	},
	{
		"Id": "G000197",
		"ShopGroup": "苏宁电器",
		"Address": "重庆市大渡口区春晖路街道松青路1029号春光购物广场",
		"District": "大渡口区",
		"Function": "刷卡消费",
		"Type": "畅享账户",
		"Withdraw": "暂无折扣",
		"ShopName": "大渡口步行街店",
		"Latitude": 29.482738999999999,
		"Longitude": 106.487031
	},
	{
		"Id": "G000198",
		"ShopGroup": "天友乳业集团",
		"Address": "大渡口区春晖路街道翠柏路96号",
		"District": "大渡口区",
		"Function": "刷卡消费",
		"Type": "畅通钱包",
		"Withdraw": "暂无折扣",
		"ShopName": "锦天康都加盟",
		"Latitude": 29.47991,
		"Longitude": 106.481148
	},
	{
		"Id": "G000199",
		"ShopGroup": "天友乳业集团",
		"Address": "六店子837车站",
		"District": "大渡口区",
		"Function": "刷卡消费",
		"Type": "畅通钱包",
		"Withdraw": "暂无折扣",
		"ShopName": "837加盟",
		"Latitude": 29.545442999999999,
		"Longitude": 106.495929
	},
	{
		"Id": "G000200",
		"ShopGroup": "天友乳业集团",
		"Address": "大渡口朵力品道小区双林路2号-35号",
		"District": "大渡口区",
		"Function": "刷卡消费",
		"Type": "畅通钱包",
		"Withdraw": "暂无折扣",
		"ShopName": "朵力品道加盟",
		"Latitude": 29.476969,
		"Longitude": 106.486453
	},
	{
		"Id": "G000201",
		"ShopGroup": "天友乳业集团",
		"Address": "中交丽景小区门口",
		"District": "大渡口区",
		"Function": "刷卡消费",
		"Type": "畅通钱包",
		"Withdraw": "暂无折扣",
		"ShopName": "大渡口区中交丽景加盟",
		"Latitude": 29.500912,
		"Longitude": 106.480422
	},
	{
		"Id": "G000202",
		"ShopGroup": "天友乳业集团",
		"Address": "大渡口马王2村4号",
		"District": "大渡口区",
		"Function": "刷卡消费",
		"Type": "畅通钱包",
		"Withdraw": "暂无折扣",
		"ShopName": "冯勇服务中心",
		"Latitude": 29.499269999999999,
		"Longitude": 106.50078600000001
	},
	{
		"Id": "G000203",
		"ShopGroup": "天友乳业集团",
		"Address": "大渡口区逸景小区后门",
		"District": "大渡口区",
		"Function": "刷卡消费",
		"Type": "畅通钱包",
		"Withdraw": "暂无折扣",
		"ShopName": "逸景服务中心",
		"Latitude": 29.424140000000001,
		"Longitude": 106.465322
	},
	{
		"Id": "G000204",
		"ShopGroup": "天友乳业集团",
		"Address": "大渡口区马王六村菜市口",
		"District": "大渡口区",
		"Function": "刷卡消费",
		"Type": "畅通钱包",
		"Withdraw": "暂无折扣",
		"ShopName": "马王6村服务中心",
		"Latitude": 29.499806,
		"Longitude": 106.494553
	},
	{
		"Id": "G000205",
		"ShopGroup": "天友乳业集团",
		"Address": "大渡口区毛线钩新口味",
		"District": "大渡口区",
		"Function": "刷卡消费",
		"Type": "畅通钱包",
		"Withdraw": "暂无折扣",
		"ShopName": "毛线沟新口味中心",
		"Latitude": 29.424140000000001,
		"Longitude": 106.465322
	},
	{
		"Id": "G000206",
		"ShopGroup": "天友乳业集团",
		"Address": "茄子溪综合市场",
		"District": "大渡口区",
		"Function": "刷卡消费",
		"Type": "畅通钱包",
		"Withdraw": "暂无折扣",
		"ShopName": "茄子溪静心花园加盟",
		"Latitude": 38.532843999999997,
		"Longitude": 114.978067
	},
	{
		"Id": "G000207",
		"ShopGroup": "天友乳业集团",
		"Address": "双龙路2-29",
		"District": "大渡口区",
		"Function": "刷卡消费",
		"Type": "畅通钱包",
		"Withdraw": "暂无折扣",
		"ShopName": "大渡口区香漫岭加盟",
		"Latitude": 31.977056000000001,
		"Longitude": 118.819385
	},
	{
		"Id": "G000208",
		"ShopGroup": "天友乳业集团",
		"Address": "大渡口渝钢村锦冠明珠小区门口",
		"District": "大渡口区",
		"Function": "刷卡消费",
		"Type": "畅通钱包",
		"Withdraw": "暂无折扣",
		"ShopName": "锦冠明珠服务中心",
		"Latitude": 29.493845,
		"Longitude": 106.50704899999999
	},
	{
		"Id": "G000209",
		"ShopGroup": "天友乳业集团",
		"Address": "大渡口区松青路45号春晖小区大门口",
		"District": "大渡口区",
		"Function": "刷卡消费",
		"Type": "畅通钱包",
		"Withdraw": "暂无折扣",
		"ShopName": "春晖服务中心",
		"Latitude": 29.463498000000001,
		"Longitude": 106.486024
	},
	{
		"Id": "G000210",
		"ShopGroup": "天友乳业集团",
		"Address": "马王3村29号",
		"District": "大渡口区",
		"Function": "刷卡消费",
		"Type": "畅通钱包",
		"Withdraw": "暂无折扣",
		"ShopName": "正大服务中心",
		"Latitude": 29.497741999999999,
		"Longitude": 106.49727900000001
	},
	{
		"Id": "G000211",
		"ShopGroup": "天友乳业集团",
		"Address": "文体路137-3",
		"District": "大渡口区",
		"Function": "刷卡消费",
		"Type": "畅通钱包",
		"Withdraw": "暂无折扣",
		"ShopName": "阳光服务中心",
		"Latitude": 32.025106999999998,
		"Longitude": 118.763205
	},
	{
		"Id": "G000212",
		"ShopGroup": "天友乳业集团",
		"Address": "大渡口双龙路6号29号门面",
		"District": "大渡口区",
		"Function": "刷卡消费",
		"Type": "畅通钱包",
		"Withdraw": "暂无折扣",
		"ShopName": "香漫岭加盟",
		"Latitude": 29.424140000000001,
		"Longitude": 106.465322
	},
	{
		"Id": "G000213",
		"ShopGroup": "天友乳业集团",
		"Address": "大渡口柏桦街",
		"District": "大渡口区",
		"Function": "刷卡消费",
		"Type": "畅通钱包",
		"Withdraw": "暂无折扣",
		"ShopName": "恒通加盟",
		"Latitude": 29.424140000000001,
		"Longitude": 106.465322
	},
	{
		"Id": "G000214",
		"ShopGroup": "天友乳业集团",
		"Address": "新山村轻轨站背后",
		"District": "大渡口区",
		"Function": "刷卡消费",
		"Type": "畅通钱包",
		"Withdraw": "暂无折扣",
		"ShopName": "香港城服务中心",
		"Latitude": 29.487560999999999,
		"Longitude": 106.49394700000001
	},
	{
		"Id": "G000215",
		"ShopGroup": "天友乳业集团",
		"Address": "茄子溪综合农贸市场C-7",
		"District": "大渡口区",
		"Function": "刷卡消费",
		"Type": "畅通钱包",
		"Withdraw": "暂无折扣",
		"ShopName": "茄子溪服务中心",
		"Latitude": 30.055862000000001,
		"Longitude": 120.25116300000001
	},
	{
		"Id": "G000216",
		"ShopGroup": "天友乳业集团",
		"Address": "大渡口巴国城后门中交丽景小区",
		"District": "大渡口区",
		"Function": "刷卡消费",
		"Type": "畅通钱包",
		"Withdraw": "暂无折扣",
		"ShopName": "中交丽景中心店",
		"Latitude": 29.500912,
		"Longitude": 106.480422
	},
	{
		"Id": "G000217",
		"ShopGroup": "天友乳业集团",
		"Address": "马王2村54-4",
		"District": "大渡口区",
		"Function": "刷卡消费",
		"Type": "畅通钱包",
		"Withdraw": "暂无折扣",
		"ShopName": "马王2村服务中心",
		"Latitude": 29.498066999999999,
		"Longitude": 106.499413
	},
	{
		"Id": "G000218",
		"ShopGroup": "天友乳业集团",
		"Address": "跃进村9号",
		"District": "大渡口区",
		"Function": "刷卡消费",
		"Type": "畅通钱包",
		"Withdraw": "暂无折扣",
		"ShopName": "阳明华庭服务中心",
		"Latitude": 31.055536,
		"Longitude": 121.50297
	},
	{
		"Id": "G000219",
		"ShopGroup": "天友乳业集团",
		"Address": "大渡口美德路3-1",
		"District": "大渡口区",
		"Function": "刷卡消费",
		"Type": "畅通钱包",
		"Withdraw": "暂无折扣",
		"ShopName": "美德家园加盟",
		"Latitude": 29.492805000000001,
		"Longitude": 106.49341099999999
	},
	{
		"Id": "G000220",
		"ShopGroup": "天友乳业集团",
		"Address": "双林路2号-35",
		"District": "大渡口区",
		"Function": "刷卡消费",
		"Type": "畅通钱包",
		"Withdraw": "暂无折扣",
		"ShopName": "大渡口区朵力品道加盟",
		"Latitude": 30.656502,
		"Longitude": 104.120707
	},
	{
		"Id": "G000221",
		"ShopGroup": "天友乳业集团",
		"Address": "大渡口区区府旁边园丁小区",
		"District": "大渡口区",
		"Function": "刷卡消费",
		"Type": "畅通钱包",
		"Withdraw": "暂无折扣",
		"ShopName": "园丁服务中心",
		"Latitude": 29.487131999999999,
		"Longitude": 106.482482
	},
	{
		"Id": "G000222",
		"ShopGroup": "天友乳业集团",
		"Address": "大渡口巴国城东海阿特豪斯6号门面",
		"District": "大渡口区",
		"Function": "刷卡消费",
		"Type": "畅通钱包",
		"Withdraw": "暂无折扣",
		"ShopName": "东海阿特豪斯中心",
		"Latitude": 29.501215999999999,
		"Longitude": 106.47698699999999
	},
	{
		"Id": "G000223",
		"ShopGroup": "天友乳业集团",
		"Address": "大渡口朵力小区内一号门面",
		"District": "大渡口区",
		"Function": "刷卡消费",
		"Type": "畅通钱包",
		"Withdraw": "暂无折扣",
		"ShopName": "朵力小区中心店",
		"Latitude": 29.496644,
		"Longitude": 106.492999
	},
	{
		"Id": "G000224",
		"ShopGroup": "天友乳业集团",
		"Address": "大渡口迁禧花园2栋-5号",
		"District": "大渡口区",
		"Function": "刷卡消费",
		"Type": "畅通钱包",
		"Withdraw": "暂无折扣",
		"ShopName": "迁禧服务中心",
		"Latitude": 29.466111999999999,
		"Longitude": 106.48313899999999
	},
	{
		"Id": "G000225",
		"ShopGroup": "天友乳业集团",
		"Address": "毛线钩西郊路59-26",
		"District": "大渡口区",
		"Function": "刷卡消费",
		"Type": "畅通钱包",
		"Withdraw": "暂无折扣",
		"ShopName": "毛线沟服务中心",
		"Latitude": 43.896014000000001,
		"Longitude": 125.293593
	},
	{
		"Id": "G000226",
		"ShopGroup": "张鸭子",
		"Address": "大渡口区春晖路街道松青路1029号(沃尔玛商场出口处)",
		"District": "大渡口区",
		"Function": "刷卡消费",
		"Type": "畅通钱包",
		"Withdraw": "享受9.5折优惠",
		"ShopName": "香港城",
		"Latitude": 29.482861,
		"Longitude": 106.486861
	},
	{
		"Id": "G000227",
		"ShopGroup": "张鸭子",
		"Address": "大渡口区春晖路街道松青路1029号(沃尔玛商场出口处)",
		"District": "大渡口区",
		"Function": "刷卡消费",
		"Type": "畅通钱包",
		"Withdraw": "享受9.5折优惠",
		"ShopName": "松青路",
		"Latitude": 29.482861,
		"Longitude": 106.486861
	},
	{
		"Id": "G000228",
		"ShopGroup": "中百仓储",
		"Address": "大渡口区跃进村跃进路17号",
		"District": "大渡口区",
		"Function": "刷卡消费(提供充值服务)",
		"Type": "畅通钱包",
		"Withdraw": "部分商品享受9.5折优惠",
		"ShopName": "跃进路店",
		"Latitude": 29.493216,
		"Longitude": 106.496788
	},
	{
		"Id": "G000229",
		"ShopGroup": "中百仓储",
		"Address": "重庆市大渡口区春晖路街道湖榕路75号附19号",
		"District": "大渡口区",
		"Function": "刷卡消费(提供充值服务)",
		"Type": "畅通钱包",
		"Withdraw": "部分商品享受9.5折优惠",
		"ShopName": "湖榕锦苑店",
		"Latitude": 29.473127000000002,
		"Longitude": 106.490351
	},
	{
		"Id": "G000230",
		"ShopGroup": "中百仓储",
		"Address": "大渡口区朵力名都31号1-1",
		"District": "大渡口区",
		"Function": "刷卡消费(提供充值服务)",
		"Type": "畅通钱包",
		"Withdraw": "部分商品享受9.5折优惠",
		"ShopName": "朵力店",
		"Latitude": 29.500067999999999,
		"Longitude": 106.490801
	},
	{
		"Id": "G000231",
		"ShopGroup": "中百仓储",
		"Address": "中百仓储大渡口区跃进村街道双山路58号1-2幢",
		"District": "大渡口区",
		"Function": "刷卡消费(提供充值服务)",
		"Type": "畅通钱包",
		"Withdraw": "部分商品享受9.5折优惠",
		"ShopName": "双山路店",
		"Latitude": 29.495100999999998,
		"Longitude": 106.48973700000001
	},
	{
		"Id": "G000232",
		"ShopGroup": "中百仓储",
		"Address": "大渡口区春晖路街道翠柏路96号9栋52号",
		"District": "大渡口区",
		"Function": "刷卡消费(提供充值服务)",
		"Type": "畅通钱包",
		"Withdraw": "部分商品享受9.5折优惠",
		"ShopName": "翠柏路店",
		"Latitude": 29.479346,
		"Longitude": 106.48138
	},
	{
		"Id": "G000233",
		"ShopGroup": "中石化",
		"Address": "重庆市大渡口区组团02/2-01号地块刘家坝转盘往鱼洞方向前500米",
		"District": "大渡口区",
		"Function": "刷卡消费",
		"Type": "畅通钱包/畅享账户",
		"Withdraw": "暂无折扣",
		"ShopName": "鱼洞大桥加油加气站",
		"Latitude": 29.387491000000001,
		"Longitude": 106.525854
	},
	{
		"Id": "G000234",
		"ShopGroup": "中石油",
		"Address": "大渡口八桥乡八一村",
		"District": "大渡口区",
		"Function": "刷卡消费",
		"Type": "畅通钱包/畅享账户",
		"Withdraw": "暂无折扣",
		"ShopName": "大渡口柏树堡加油站",
		"Latitude": 29.481576,
		"Longitude": 106.489293
	},
	{
		"Id": "G000235",
		"ShopGroup": "中石油",
		"Address": "重庆大渡口区八桥镇新三村",
		"District": "大渡口区",
		"Function": "刷卡消费",
		"Type": "畅通钱包/畅享账户",
		"Withdraw": "暂无折扣",
		"ShopName": "大渡口八桥加油站",
		"Latitude": 29.48141,
		"Longitude": 106.48915
	},
	{
		"Id": "G000236",
		"ShopGroup": "中石油",
		"Address": "重庆大渡口区钢花路1149号",
		"District": "大渡口区",
		"Function": "刷卡消费",
		"Type": "畅通钱包/畅享账户",
		"Withdraw": "暂无折扣",
		"ShopName": "大渡口九宫庙加油站",
		"Latitude": 29.470666999999999,
		"Longitude": 106.49297199999999
	},
	{
		"Id": "G000237",
		"ShopGroup": "重百,新世纪",
		"Address": "重庆市大渡口区大渡口区松青路1011号",
		"District": "大渡口区",
		"Function": "刷卡消费",
		"Type": "畅享账户",
		"Withdraw": "暂无折扣",
		"ShopName": "重庆商社新世纪百货连锁经营有限公司大渡口商都(超市)",
		"Latitude": 29.483180000000001,
		"Longitude": 106.487694
	},
	{
		"Id": "G000238",
		"ShopGroup": "重百,新世纪",
		"Address": "重庆市大渡口区松青路1011号",
		"District": "大渡口区",
		"Function": "刷卡消费",
		"Type": "畅享账户",
		"Withdraw": "暂无折扣",
		"ShopName": "重庆商社新世纪百货连锁经营有限公司大渡口商都",
		"Latitude": 29.483180000000001,
		"Longitude": 106.487694
	},
	{
		"Id": "G000239",
		"ShopGroup": "重百,新世纪",
		"Address": "重庆市大渡口区大渡口区钢花路25号附1号",
		"District": "大渡口区",
		"Function": "刷卡消费",
		"Type": "畅享账户",
		"Withdraw": "暂无折扣",
		"ShopName": "重庆商社新世纪百货连锁经营有限公司建设村店",
		"Latitude": 29.494558000000001,
		"Longitude": 106.493932
	},
	{
		"Id": "G000240",
		"ShopGroup": "重庆万达国际电影城有限公司",
		"Address": "重庆大渡口区松青路1099号新天泽国际广场4楼",
		"District": "大渡口区",
		"Function": "刷卡消费",
		"Type": "畅通钱包",
		"Withdraw": "2D,35元;3D,45元",
		"ShopName": "大渡口店",
		"Latitude": 29.480962000000002,
		"Longitude": 106.48752399999999
	},
	{
		"Id": "G000241",
		"ShopGroup": "紫燕百味鸡",
		"Address": "大渡口区文体路金都会广场旁",
		"District": "大渡口区",
		"Function": "刷卡消费",
		"Type": "畅通钱包",
		"Withdraw": "享受9.5折优惠",
		"ShopName": "文体路",
		"Latitude": 29.487862,
		"Longitude": 106.493723
	},
	{
		"Id": "G000242",
		"ShopGroup": "紫燕百味鸡",
		"Address": "大渡口区钢花路法院旁",
		"District": "大渡口区",
		"Function": "刷卡消费",
		"Type": "畅通钱包",
		"Withdraw": "享受9.5折优惠",
		"ShopName": "建设",
		"Latitude": 29.484551,
		"Longitude": 106.493241
	},
	{
		"Id": "G000243",
		"ShopGroup": "紫燕百味鸡",
		"Address": "大渡口区香港城东区广场永辉超市入口旁",
		"District": "大渡口区",
		"Function": "刷卡消费",
		"Type": "畅通钱包",
		"Withdraw": "享受9.5折优惠",
		"ShopName": "香港城",
		"Latitude": 29.488668000000001,
		"Longitude": 106.49139099999999
	},
	{
		"Id": "G000244",
		"ShopGroup": "紫燕百味鸡",
		"Address": "大渡口区马王小学旁",
		"District": "大渡口区",
		"Function": "刷卡消费",
		"Type": "畅通钱包",
		"Withdraw": "享受9.5折优惠",
		"ShopName": "大堰",
		"Latitude": 29.424140000000001,
		"Longitude": 106.465322
	},
	{
		"Id": "G000245",
		"ShopGroup": "紫燕百味鸡",
		"Address": "大渡口区八桥街重庆崽儿火锅旁",
		"District": "大渡口区",
		"Function": "刷卡消费",
		"Type": "畅通钱包",
		"Withdraw": "享受9.5折优惠",
		"ShopName": "九宫庙",
		"Latitude": 29.481268,
		"Longitude": 106.489813
	},
	{
		"Id": "G000246",
		"ShopGroup": "711(24H)便利店",
		"Address": "重庆市江北区洋河一路2号附11号",
		"District": "江北区",
		"Function": "刷卡消费(提供充值服务)",
		"Type": "畅通钱包",
		"Withdraw": "暂无折扣",
		"ShopName": "洋河路店",
		"Latitude": 29.588811,
		"Longitude": 106.535432
	},
	{
		"Id": "G000247",
		"ShopGroup": "阿兴家",
		"Address": "江北区建新东路11号附1号部分",
		"District": "江北区",
		"Function": "刷卡消费",
		"Type": "畅通钱包",
		"Withdraw": "享受9.5折优惠",
		"ShopName": "梦幻21店",
		"Latitude": 29.580663000000001,
		"Longitude": 106.543294
	},
	{
		"Id": "G000248",
		"ShopGroup": "阿兴家",
		"Address": "江北区洋河新区东和城门面",
		"District": "江北区",
		"Function": "刷卡消费",
		"Type": "畅通钱包",
		"Withdraw": "享受9.5折优惠",
		"ShopName": "东和城店",
		"Latitude": 29.586634,
		"Longitude": 106.548502
	},
	{
		"Id": "G000249",
		"ShopGroup": "贝尔麦莎",
		"Address": "江北区加州百合园新世纪超市旁",
		"District": "江北区",
		"Function": "刷卡消费",
		"Type": "畅通钱包",
		"Withdraw": "享受9.8折优惠",
		"ShopName": "加州",
		"Latitude": 29.577424000000001,
		"Longitude": 106.504696
	},
	{
		"Id": "G000250",
		"ShopGroup": "贝尔麦莎",
		"Address": "江北区龙华大道99号1-3号门(长安锦绣大门入口)",
		"District": "江北区",
		"Function": "刷卡消费",
		"Type": "畅通钱包",
		"Withdraw": "享受9.8折优惠",
		"ShopName": "长安锦绣",
		"Latitude": 38.076875000000001,
		"Longitude": 114.59262200000001
	},
	{
		"Id": "G000251",
		"ShopGroup": "大米先生",
		"Address": "重庆江北区五江路9号附36号-2",
		"District": "江北区",
		"Function": "刷卡消费",
		"Type": "畅通钱包",
		"Withdraw": "享受9.5折优惠",
		"ShopName": "重庆兴红得聪餐饮管理有限公司江北区五江路餐厅",
		"Latitude": 29.587323000000001,
		"Longitude": 106.57011199999999
	},
	{
		"Id": "G000252",
		"ShopGroup": "大米先生",
		"Address": "重庆市江北区西环路8号负2层",
		"District": "江北区",
		"Function": "刷卡消费",
		"Type": "畅通钱包",
		"Withdraw": "享受9.5折优惠",
		"ShopName": "重庆兴红得聪餐饮管理有限公司江北区朗晴广场餐厅",
		"Latitude": 29.580603,
		"Longitude": 106.53543000000001
	},
	{
		"Id": "G000253",
		"ShopGroup": "大米先生",
		"Address": "重庆市江北区建新西路4号拓展大厦临街门面",
		"District": "江北区",
		"Function": "刷卡消费",
		"Type": "畅通钱包",
		"Withdraw": "享受9.5折优惠",
		"ShopName": "重庆兴红得聪餐饮管理有限公司江北区拓展大厦餐厅",
		"Latitude": 29.57807,
		"Longitude": 106.537926
	},
	{
		"Id": "G000254",
		"ShopGroup": "大米先生",
		"Address": "重庆市江北区洋河北路6号LA-13,14,15-1号",
		"District": "江北区",
		"Function": "刷卡消费",
		"Type": "畅通钱包",
		"Withdraw": "享受9.5折优惠",
		"ShopName": "重庆兴红得聪餐饮管理有限公司江北区洋河北路第二餐厅",
		"Latitude": 29.592663999999999,
		"Longitude": 106.541231
	},
	{
		"Id": "G000255",
		"ShopGroup": "大米先生",
		"Address": "重庆市江北区红黄路1号2幢负3-5号",
		"District": "江北区",
		"Function": "刷卡消费",
		"Type": "畅通钱包",
		"Withdraw": "享受9.5折优惠",
		"ShopName": "重庆兴红得聪餐饮管理有限公司江北区红旗河沟餐厅",
		"Latitude": 29.590202999999999,
		"Longitude": 106.53437599999999
	},
	{
		"Id": "G000256",
		"ShopGroup": "大苹果多拿兹",
		"Address": "江北区观音桥步行街轻轨3号线出入口",
		"District": "江北区",
		"Function": "刷卡消费",
		"Type": "畅通钱包",
		"Withdraw": "享受9.7折优惠",
		"ShopName": "大苹果多拿滋咖啡江北店",
		"Latitude": 29.57978,
		"Longitude": 106.537571
	},
	{
		"Id": "G000257",
		"ShopGroup": "德克士",
		"Address": "重庆市重庆市渝北区回兴兴科大道229号水命年华第一层F-16",
		"District": "江北区",
		"Function": "刷卡消费",
		"Type": "畅通钱包",
		"Withdraw": "原价单品享受8.5折优惠(卡友日除外)",
		"ShopName": "",
		"Latitude": 29.816264,
		"Longitude": 106.753799
	},
	{
		"Id": "G000258",
		"ShopGroup": "德克士",
		"Address": "江北区观音桥赛博数码广场二楼",
		"District": "江北区",
		"Function": "刷卡消费",
		"Type": "畅通钱包",
		"Withdraw": "原价单品享受8.5折优惠(卡友日除外)",
		"ShopName": "德克士加盟(赛博店)",
		"Latitude": 29.578849999999999,
		"Longitude": 106.538189
	},
	{
		"Id": "G000259",
		"ShopGroup": "德克士",
		"Address": "重庆市江北区观音桥赛博数码广场2楼",
		"District": "江北区",
		"Function": "刷卡消费",
		"Type": "畅通钱包",
		"Withdraw": "原价单品享受8.5折优惠(卡友日除外)",
		"ShopName": "赛博",
		"Latitude": 29.578849999999999,
		"Longitude": 106.538189
	},
	{
		"Id": "G000260",
		"ShopGroup": "德克士",
		"Address": "重庆市重庆市渝北区回兴兴科大道229号水命年华第一层F-16",
		"District": "江北区",
		"Function": "刷卡消费",
		"Type": "畅通钱包",
		"Withdraw": "原价单品享受8.5折优惠(卡友日除外)",
		"ShopName": "",
		"Latitude": 29.816264,
		"Longitude": 106.753799
	},
	{
		"Id": "G000261",
		"ShopGroup": "德克士",
		"Address": "重庆市江北区观音桥赛博数码广场2楼",
		"District": "江北区",
		"Function": "刷卡消费",
		"Type": "畅通钱包",
		"Withdraw": "原价单品享受8.5折优惠(卡友日除外)",
		"ShopName": "",
		"Latitude": 29.578849999999999,
		"Longitude": 106.538189
	},
	{
		"Id": "G000262",
		"ShopGroup": "国美电器",
		"Address": "重庆市江北区红锦大道2号",
		"District": "江北区",
		"Function": "刷卡消费(提供充值服务)",
		"Type": "畅享账户",
		"Withdraw": "千元以下商品享受9.5折优惠",
		"ShopName": "江北红旗河沟店",
		"Latitude": 29.590935999999999,
		"Longitude": 106.53336
	},
	{
		"Id": "G000263",
		"ShopGroup": "国美电器",
		"Address": "重庆市江北区建新南路1号",
		"District": "江北区",
		"Function": "刷卡消费(提供充值服务)",
		"Type": "畅享账户",
		"Withdraw": "千元以下商品享受9.5折优惠",
		"ShopName": "观音桥中信旗舰店",
		"Latitude": 29.578112999999998,
		"Longitude": 106.540778
	},
	{
		"Id": "G000264",
		"ShopGroup": "国美电器",
		"Address": "重庆市江北区建新南路1号",
		"District": "江北区",
		"Function": "刷卡消费(提供充值服务)",
		"Type": "畅享账户",
		"Withdraw": "千元以下商品享受9.5折优惠",
		"ShopName": "观音桥中信旗舰店",
		"Latitude": 29.578112999999998,
		"Longitude": 106.540778
	},
	{
		"Id": "G000265",
		"ShopGroup": "国美电器",
		"Address": "重庆市江北区观音桥大融城负一楼",
		"District": "江北区",
		"Function": "刷卡消费(提供充值服务)",
		"Type": "畅享账户",
		"Withdraw": "千元以下商品享受9.5折优惠",
		"ShopName": "观音桥大融城店",
		"Latitude": 29.581320999999999,
		"Longitude": 106.538854
	},
	{
		"Id": "G000266",
		"ShopGroup": "国美电器",
		"Address": "重庆市江北区红锦大道2号",
		"District": "江北区",
		"Function": "刷卡消费(提供充值服务)",
		"Type": "畅享账户",
		"Withdraw": "千元以下商品享受9.5折优惠",
		"ShopName": "江北红旗河沟店",
		"Latitude": 29.590935999999999,
		"Longitude": 106.53336
	},
	{
		"Id": "G000267",
		"ShopGroup": "国美电器",
		"Address": "重庆市江北区观音桥大融城负一楼",
		"District": "江北区",
		"Function": "刷卡消费(提供充值服务)",
		"Type": "畅享账户",
		"Withdraw": "千元以下商品享受9.5折优惠",
		"ShopName": "观音桥大融城店",
		"Latitude": 29.581320999999999,
		"Longitude": 106.538854
	},
	{
		"Id": "G000268",
		"ShopGroup": "国美电器",
		"Address": "重庆市江北区五红路1号",
		"District": "江北区",
		"Function": "刷卡消费(提供充值服务)",
		"Type": "畅享账户",
		"Withdraw": "千元以下商品享受9.5折优惠",
		"ShopName": "五里店曼哈顿广场店",
		"Latitude": 29.588559,
		"Longitude": 106.56706
	},
	{
		"Id": "G000269",
		"ShopGroup": "好客万家商贸",
		"Address": "重庆市江北区鱼嘴镇鱼嘴北路69号和韵家园17号楼1701,1702",
		"District": "江北区",
		"Function": "刷卡消费",
		"Type": "畅通钱包/畅享账户",
		"Withdraw": "暂无折扣",
		"ShopName": "世纪华联",
		"Latitude": 29.630981999999999,
		"Longitude": 106.765575
	},
	{
		"Id": "G000270",
		"ShopGroup": "华生园",
		"Address": "渝北区龙溪街道龙山路62号东和春天群楼2楼20号",
		"District": "江北区",
		"Function": "刷卡消费",
		"Type": "畅通钱包",
		"Withdraw": "享受9.5折优惠",
		"ShopName": "东和春天",
		"Latitude": 29.597832,
		"Longitude": 106.512333
	},
	{
		"Id": "G000271",
		"ShopGroup": "华生园",
		"Address": "江北区石马河壹江城",
		"District": "江北区",
		"Function": "刷卡消费",
		"Type": "畅通钱包",
		"Withdraw": "享受9.5折优惠",
		"ShopName": "壹江城",
		"Latitude": 29.592109000000001,
		"Longitude": 106.473843
	},
	{
		"Id": "G000272",
		"ShopGroup": "华谊兄弟重庆影院",
		"Address": "江北观音桥步行街金源不夜城",
		"District": "江北区",
		"Function": "刷卡消费",
		"Type": "畅通钱包",
		"Withdraw": "刷卡消费5折每票加3元",
		"ShopName": "重庆华谊兄弟影院江北金源店",
		"Latitude": 29.578744,
		"Longitude": 106.536607
	},
	{
		"Id": "G000273",
		"ShopGroup": "欢乐迪",
		"Address": "江北区观音桥步行街未来国际大厦5层",
		"District": "江北区",
		"Function": "刷卡消费",
		"Type": "畅通钱包/畅享账户",
		"Withdraw": "周一至周日(13: 00-18: 30)38元享受价值498元下午场欢乐套餐",
		"ShopName": "江北观音桥店",
		"Latitude": 29.580565,
		"Longitude": 106.53939099999999
	},
	{
		"Id": "G000274",
		"ShopGroup": "欢乐迪",
		"Address": "江北区北城天街贸展大厦3层",
		"District": "江北区",
		"Function": "刷卡消费",
		"Type": "畅通钱包/畅享账户",
		"Withdraw": "周一至周日(13: 00-18: 30)38元享受价值499元下午场欢乐套餐",
		"ShopName": "江北九街店",
		"Latitude": 29.585705000000001,
		"Longitude": 106.541577
	},
	{
		"Id": "G000275",
		"ShopGroup": "江北区亚明餐厅",
		"Address": "重庆市江北区大石坝红盛路37号东原新新PAPK商场LG层A46号",
		"District": "江北区",
		"Function": "刷卡消费",
		"Type": "畅通钱包",
		"Withdraw": "原价单品享受8.5折优惠(卡友日除外)",
		"ShopName": "德克士加盟(亚明店)",
		"Latitude": 29.575406000000001,
		"Longitude": 106.50425799999999
	},
	{
		"Id": "G000276",
		"ShopGroup": "肯德基",
		"Address": "重庆重庆市江北区观音桥步行街新世界百货一楼",
		"District": "江北区",
		"Function": "刷卡消费",
		"Type": "畅通钱包",
		"Withdraw": "暂无折扣",
		"ShopName": "KFCCHQ086观音桥步行街新世界百货店",
		"Latitude": 29.579671000000001,
		"Longitude": 106.53945299999999
	},
	{
		"Id": "G000277",
		"ShopGroup": "肯德基",
		"Address": "重庆重庆市江北区建新西路2号特2金观音广场一楼",
		"District": "江北区",
		"Function": "刷卡消费",
		"Type": "畅通钱包",
		"Withdraw": "暂无折扣",
		"ShopName": "KFCCHQ018金观音",
		"Latitude": 29.576715,
		"Longitude": 106.537246
	},
	{
		"Id": "G000278",
		"ShopGroup": "肯德基",
		"Address": "重庆重庆市江北区洋河路6,8号北城天街4号LG层",
		"District": "江北区",
		"Function": "刷卡消费",
		"Type": "畅通钱包",
		"Withdraw": "暂无折扣",
		"ShopName": "KFCCHQ163北城天街",
		"Latitude": 29.583226,
		"Longitude": 106.538573
	},
	{
		"Id": "G000279",
		"ShopGroup": "肯德基",
		"Address": "重庆重庆市江北区建新北路16号G-1层",
		"District": "江北区",
		"Function": "刷卡消费",
		"Type": "畅通钱包",
		"Withdraw": "暂无折扣",
		"ShopName": "肯德基CHQ202",
		"Latitude": 29.583788999999999,
		"Longitude": 106.537567
	},
	{
		"Id": "G000280",
		"ShopGroup": "肯德基",
		"Address": "重庆重庆市江北区观音桥北城天街上段33号",
		"District": "江北区",
		"Function": "刷卡消费",
		"Type": "畅通钱包",
		"Withdraw": "暂无折扣",
		"ShopName": "KFCCHQ097东和观音桥北城天街上段店",
		"Latitude": 29.586634,
		"Longitude": 106.548502
	},
	{
		"Id": "G000281",
		"ShopGroup": "廖记棒棒鸡",
		"Address": "北部新区天宫殿街道(轻轨狮子坪车站)",
		"District": "江北区",
		"Function": "刷卡消费",
		"Type": "畅通钱包",
		"Withdraw": "享受9.2折优惠",
		"ShopName": "香槟店",
		"Latitude": 29.656072000000002,
		"Longitude": 106.571124
	},
	{
		"Id": "G000282",
		"ShopGroup": "廖记棒棒鸡",
		"Address": "渝北区龙溪街道松牌路109号二区负108号",
		"District": "江北区",
		"Function": "刷卡消费",
		"Type": "畅通钱包",
		"Withdraw": "享受9.2折优惠",
		"ShopName": "锦绣店",
		"Latitude": 29.816264,
		"Longitude": 106.753799
	},
	{
		"Id": "G000283",
		"ShopGroup": "廖记棒棒鸡",
		"Address": "渝北区龙溪街道武陵路街224号(加州百合园新世纪对面)",
		"District": "江北区",
		"Function": "刷卡消费",
		"Type": "畅通钱包",
		"Withdraw": "享受9.2折优惠",
		"ShopName": "加州店",
		"Latitude": 29.592977999999999,
		"Longitude": 106.52739099999999
	},
	{
		"Id": "G000284",
		"ShopGroup": "廖记棒棒鸡",
		"Address": "渝北区财信国际新世纪入口处",
		"District": "江北区",
		"Function": "刷卡消费",
		"Type": "畅通钱包",
		"Withdraw": "享受9.2折优惠",
		"ShopName": "财信店",
		"Latitude": 29.596594,
		"Longitude": 106.524113
	},
	{
		"Id": "G000285",
		"ShopGroup": "廖记棒棒鸡",
		"Address": "江北区观音桥天街二号1-13号",
		"District": "江北区",
		"Function": "刷卡消费",
		"Type": "畅通钱包",
		"Withdraw": "享受9.2折优惠",
		"ShopName": "天街店",
		"Latitude": 29.574196000000001,
		"Longitude": 106.534301
	},
	{
		"Id": "G000286",
		"ShopGroup": "廖记棒棒鸡",
		"Address": "观音桥步行街永辉超市旁",
		"District": "江北区",
		"Function": "刷卡消费",
		"Type": "畅通钱包",
		"Withdraw": "享受9.2折优惠",
		"ShopName": "金源店",
		"Latitude": 29.579367000000001,
		"Longitude": 106.537402
	},
	{
		"Id": "G000287",
		"ShopGroup": "廖记棒棒鸡",
		"Address": "江北区北城天街33号东和城(同创国际)",
		"District": "江北区",
		"Function": "刷卡消费",
		"Type": "畅通钱包",
		"Withdraw": "享受9.2折优惠",
		"ShopName": "东和城店",
		"Latitude": 29.587125,
		"Longitude": 106.550676
	},
	{
		"Id": "G000288",
		"ShopGroup": "廖记棒棒鸡",
		"Address": "江北区观音桥天街2号香港城",
		"District": "江北区",
		"Function": "刷卡消费",
		"Type": "畅通钱包",
		"Withdraw": "享受9.2折优惠",
		"ShopName": "香港城",
		"Latitude": 29.582979000000002,
		"Longitude": 106.538782
	},
	{
		"Id": "G000289",
		"ShopGroup": "廖记棒棒鸡",
		"Address": "茂业百货江北店1层",
		"District": "江北区",
		"Function": "刷卡消费",
		"Type": "畅通钱包",
		"Withdraw": "享受9.2折优惠",
		"ShopName": "茂业店",
		"Latitude": 29.583701000000001,
		"Longitude": 106.537707
	},
	{
		"Id": "G000290",
		"ShopGroup": "廖记棒棒鸡",
		"Address": "江北区建新西路小苑三村38号附10号(家乐福背后)",
		"District": "江北区",
		"Function": "刷卡消费",
		"Type": "畅通钱包",
		"Withdraw": "享受9.2折优惠",
		"ShopName": "金观音店",
		"Latitude": 29.575728999999999,
		"Longitude": 106.53635
	},
	{
		"Id": "G000291",
		"ShopGroup": "廖记棒棒鸡",
		"Address": "江北区建新东路阳光海岸12号门面",
		"District": "江北区",
		"Function": "刷卡消费",
		"Type": "畅通钱包",
		"Withdraw": "享受9.2折优惠",
		"ShopName": "大兴村店",
		"Latitude": 29.578908999999999,
		"Longitude": 106.555283
	},
	{
		"Id": "G000292",
		"ShopGroup": "廖记棒棒鸡",
		"Address": "江北区大石坝正街1-40号元佳广场",
		"District": "江北区",
		"Function": "刷卡消费",
		"Type": "畅通钱包",
		"Withdraw": "享受9.2折优惠",
		"ShopName": "元佳",
		"Latitude": 29.573844000000001,
		"Longitude": 106.49759400000001
	},
	{
		"Id": "G000293",
		"ShopGroup": "廖记棒棒鸡",
		"Address": "江北区电仪村81号附4号(洋河农贸市场附近)",
		"District": "江北区",
		"Function": "刷卡消费",
		"Type": "畅通钱包",
		"Withdraw": "享受9.2折优惠",
		"ShopName": "洋河店",
		"Latitude": 29.588422000000001,
		"Longitude": 106.539036
	},
	{
		"Id": "G000294",
		"ShopGroup": "廖记棒棒鸡",
		"Address": "渝北区松石支路金岛医院旁",
		"District": "江北区",
		"Function": "刷卡消费",
		"Type": "畅通钱包",
		"Withdraw": "享受9.2折优惠",
		"ShopName": "龙汇园店",
		"Latitude": 29.595828999999998,
		"Longitude": 106.509109
	},
	{
		"Id": "G000295",
		"ShopGroup": "廖记棒棒鸡",
		"Address": "渝北区龙溪镇花园新村2小区34栋都市丽人医院路口前行200米",
		"District": "江北区",
		"Function": "刷卡消费",
		"Type": "畅通钱包",
		"Withdraw": "享受9.2折优惠",
		"ShopName": "金岛花园店",
		"Latitude": 29.591875999999999,
		"Longitude": 106.511152
	},
	{
		"Id": "G000296",
		"ShopGroup": "廖记棒棒鸡",
		"Address": "渝北区龙山路52号A栋1层15号(东和春天永辉超市旁)",
		"District": "江北区",
		"Function": "刷卡消费",
		"Type": "畅通钱包",
		"Withdraw": "享受9.2折优惠",
		"ShopName": "春天店",
		"Latitude": 29.596385999999999,
		"Longitude": 106.512276
	},
	{
		"Id": "G000297",
		"ShopGroup": "龙湖人家",
		"Address": "江北区洋河二村18号楼附52号2-1(海关背后)",
		"District": "江北区",
		"Function": "刷卡消费",
		"Type": "畅通钱包",
		"Withdraw": "享受9.5折优惠",
		"ShopName": "观音桥海关店",
		"Latitude": 29.587496999999999,
		"Longitude": 106.536655
	},
	{
		"Id": "G000298",
		"ShopGroup": "龙湖人家",
		"Address": "江北区观音桥北城天街后街[UME国际影城楼下]",
		"District": "江北区",
		"Function": "刷卡消费",
		"Type": "畅通钱包",
		"Withdraw": "享受9.5折优惠",
		"ShopName": "北城天街店",
		"Latitude": 29.584083,
		"Longitude": 106.54082200000001
	},
	{
		"Id": "G000299",
		"ShopGroup": "卢米埃影城",
		"Address": "重庆市江北区北滨路368号金源购物广场4楼",
		"District": "江北区",
		"Function": "刷卡消费",
		"Type": "畅通钱包",
		"Withdraw": "25元起2D,3D通看",
		"ShopName": "卢米埃影城",
		"Latitude": 29.562971999999998,
		"Longitude": 106.53151099999999
	},
	{
		"Id": "G000300",
		"ShopGroup": "罗森",
		"Address": "重庆市江北区北城天街37号",
		"District": "江北区",
		"Function": "刷卡消费",
		"Type": "畅通钱包",
		"Withdraw": "",
		"ShopName": "同创国际店",
		"Latitude": 29.58623,
		"Longitude": 106.55095900000001
	},
	{
		"Id": "G000301",
		"ShopGroup": "罗森",
		"Address": "重庆市江北区大石坝组团K分区K02-1/02.K02-2/02号",
		"District": "江北区",
		"Function": "刷卡消费(提供充值服务)",
		"Type": "畅通钱包",
		"Withdraw": "暂无折扣",
		"ShopName": "东原D7",
		"Latitude": 29.611988,
		"Longitude": 106.48367399999999
	},
	{
		"Id": "G000302",
		"ShopGroup": "罗森",
		"Address": "重庆市江北区华新村96号光华•观府国际5号楼吊一层1,2号商铺",
		"District": "江北区",
		"Function": "刷卡消费(提供充值服务)",
		"Type": "畅通钱包",
		"Withdraw": "暂无折扣",
		"ShopName": "观府国际店",
		"Latitude": 29.573974,
		"Longitude": 106.540752
	},
	{
		"Id": "G000303",
		"ShopGroup": "罗森",
		"Address": "重庆市江北区五江路9号附6号",
		"District": "江北区",
		"Function": "刷卡消费(提供充值服务)",
		"Type": "畅通钱包",
		"Withdraw": "暂无折扣",
		"ShopName": "渝能国际店",
		"Latitude": 29.587441999999999,
		"Longitude": 106.56883000000001
	},
	{
		"Id": "G000304",
		"ShopGroup": "罗森",
		"Address": "重庆市江北区观音桥步行街8号附5号3-1至5号3-3",
		"District": "江北区",
		"Function": "刷卡消费(提供充值服务)",
		"Type": "畅通钱包",
		"Withdraw": "暂无折扣",
		"ShopName": "大融城店",
		"Latitude": 29.580915000000001,
		"Longitude": 106.53968
	},
	{
		"Id": "G000305",
		"ShopGroup": "罗森",
		"Address": "重庆市江北区北城天街46号附15号",
		"District": "江北区",
		"Function": "刷卡消费(提供充值服务)",
		"Type": "畅通钱包",
		"Withdraw": "暂无折扣",
		"ShopName": "九街高屋店",
		"Latitude": 29.585837999999999,
		"Longitude": 106.549983
	},
	{
		"Id": "G000306",
		"ShopGroup": "罗森",
		"Address": "重庆市江北区渝北四村64号第三层1-1-13",
		"District": "江北区",
		"Function": "刷卡消费(提供充值服务)",
		"Type": "畅通钱包",
		"Withdraw": "暂无折扣",
		"ShopName": "红鼎国际店",
		"Latitude": 29.582920999999999,
		"Longitude": 106.54131099999999
	},
	{
		"Id": "G000307",
		"ShopGroup": "罗森",
		"Address": "重庆市江北区华新村96号光华•观府国际5号楼吊一层1,2号商铺",
		"District": "江北区",
		"Function": "刷卡消费(提供充值服务)",
		"Type": "畅通钱包",
		"Withdraw": "暂无折扣",
		"ShopName": "观府国际店",
		"Latitude": 29.573974,
		"Longitude": 106.540752
	},
	{
		"Id": "G000308",
		"ShopGroup": "罗森",
		"Address": "重庆市江北区五江路9号附6号",
		"District": "江北区",
		"Function": "刷卡消费(提供充值服务)",
		"Type": "畅通钱包",
		"Withdraw": "暂无折扣",
		"ShopName": "渝能国际店",
		"Latitude": 29.587441999999999,
		"Longitude": 106.56883000000001
	},
	{
		"Id": "G000309",
		"ShopGroup": "罗森",
		"Address": "重庆市江北区金融街16号附3号",
		"District": "江北区",
		"Function": "刷卡消费(提供充值服务)",
		"Type": "畅通钱包",
		"Withdraw": "暂无折扣",
		"ShopName": "金融街店",
		"Latitude": 29.577687000000001,
		"Longitude": 106.575429
	},
	{
		"Id": "G000310",
		"ShopGroup": "罗森",
		"Address": "重庆市江北区建新东路28号1-18",
		"District": "江北区",
		"Function": "刷卡消费(提供充值服务)",
		"Type": "畅通钱包",
		"Withdraw": "暂无折扣",
		"ShopName": "阳光海岸店",
		"Latitude": 29.579991,
		"Longitude": 106.54573499999999
	},
	{
		"Id": "G000311",
		"ShopGroup": "罗森",
		"Address": "重庆市江北区五里店五简路1号的重庆“江北嘴金融街8号”项目负2层2号",
		"District": "江北区",
		"Function": "刷卡消费(提供充值服务)",
		"Type": "畅通钱包",
		"Withdraw": "暂无折扣",
		"ShopName": "罗森五简路店",
		"Latitude": 29.583228999999999,
		"Longitude": 106.571558
	},
	{
		"Id": "G000312",
		"ShopGroup": "罗森",
		"Address": "重庆市江北区五里店五简路1号的重庆“江北嘴金融街8号”项目负2层2号",
		"District": "江北区",
		"Function": "刷卡消费(提供充值服务)",
		"Type": "畅通钱包",
		"Withdraw": "暂无折扣",
		"ShopName": "罗森五简路店",
		"Latitude": 29.583228999999999,
		"Longitude": 106.571558
	},
	{
		"Id": "G000313",
		"ShopGroup": "罗森",
		"Address": "重庆市江北区北城天街11号附1号1-1的15号商铺",
		"District": "江北区",
		"Function": "刷卡消费(提供充值服务)",
		"Type": "畅通钱包",
		"Withdraw": "暂无折扣",
		"ShopName": "富力海洋国际店",
		"Latitude": 29.585951999999999,
		"Longitude": 106.541437
	},
	{
		"Id": "G000314",
		"ShopGroup": "罗森",
		"Address": "重庆市江北区金源路64号鼎升公寓5号",
		"District": "江北区",
		"Function": "刷卡消费(提供充值服务)",
		"Type": "畅通钱包",
		"Withdraw": "暂无折扣",
		"ShopName": "金源路店",
		"Latitude": 29.566607000000001,
		"Longitude": 106.53604900000001
	},
	{
		"Id": "G000315",
		"ShopGroup": "罗森",
		"Address": "重庆市江北区电仪村81号附21号",
		"District": "江北区",
		"Function": "刷卡消费(提供充值服务)",
		"Type": "畅通钱包",
		"Withdraw": "暂无折扣",
		"ShopName": "金地花园店",
		"Latitude": 29.588422000000001,
		"Longitude": 106.539036
	},
	{
		"Id": "G000316",
		"ShopGroup": "罗森",
		"Address": "重庆市江北区建新东路83号附1号",
		"District": "江北区",
		"Function": "刷卡消费(提供充值服务)",
		"Type": "畅通钱包",
		"Withdraw": "暂无折扣",
		"ShopName": "远银国际",
		"Latitude": 29.586341000000001,
		"Longitude": 106.564211
	},
	{
		"Id": "G000317",
		"ShopGroup": "罗森",
		"Address": "重庆市江北区建新东路11号附1号",
		"District": "江北区",
		"Function": "刷卡消费(提供充值服务)",
		"Type": "畅通钱包",
		"Withdraw": "暂无折扣",
		"ShopName": "建新东路店",
		"Latitude": 29.580663000000001,
		"Longitude": 106.543294
	},
	{
		"Id": "G000318",
		"ShopGroup": "罗森",
		"Address": "重庆市江北区观音桥步行街5号邦兴北都一层17.18号",
		"District": "江北区",
		"Function": "刷卡消费(提供充值服务)",
		"Type": "畅通钱包",
		"Withdraw": "暂无折扣",
		"ShopName": "邦兴北都店",
		"Latitude": 29.578845000000001,
		"Longitude": 106.53712
	},
	{
		"Id": "G000319",
		"ShopGroup": "三峡报刊亭",
		"Address": "珠江太阳城861起点站(报刊亭号3-009)",
		"District": "江北区",
		"Function": "刷卡消费(提供充值服务)",
		"Type": "畅通钱包",
		"Withdraw": "购书享受6折起优惠",
		"ShopName": "三峡报刊亭",
		"Latitude": 29.57713,
		"Longitude": 106.569278
	},
	{
		"Id": "G000320",
		"ShopGroup": "三峡报刊亭",
		"Address": "锦坪街路口(报刊亭号7-027)",
		"District": "江北区",
		"Function": "刷卡消费(提供充值服务)",
		"Type": "畅通钱包",
		"Withdraw": "购书享受6折起优惠",
		"ShopName": "三峡报刊亭",
		"Latitude": 29.594964999999998,
		"Longitude": 106.533366
	},
	{
		"Id": "G000321",
		"ShopGroup": "三峡报刊亭",
		"Address": "武陵路农贸市场斜对面(报刊亭号7-014)",
		"District": "江北区",
		"Function": "刷卡消费(提供充值服务)",
		"Type": "畅通钱包",
		"Withdraw": "购书享受6折起优惠",
		"ShopName": "三峡报刊亭",
		"Latitude": 26.059362,
		"Longitude": 119.323948
	},
	{
		"Id": "G000322",
		"ShopGroup": "三峡报刊亭",
		"Address": "长安医院住院部门口(报刊亭号3-005)",
		"District": "江北区",
		"Function": "刷卡消费(提供充值服务)",
		"Type": "畅通钱包",
		"Withdraw": "购书享受6折起优惠",
		"ShopName": "三峡报刊亭",
		"Latitude": 29.582830999999999,
		"Longitude": 106.558387
	},
	{
		"Id": "G000323",
		"ShopGroup": "三峡报刊亭",
		"Address": "松石支路116号7-02(报刊亭号7-026)",
		"District": "江北区",
		"Function": "刷卡消费(提供充值服务)",
		"Type": "畅通钱包",
		"Withdraw": "购书享受6折起优惠",
		"ShopName": "三峡报刊亭",
		"Latitude": 29.592186999999999,
		"Longitude": 106.509766
	},
	{
		"Id": "G000324",
		"ShopGroup": "三峡报刊亭",
		"Address": "万隆市场支路里(松石支路136号)(报刊亭号7-008)",
		"District": "江北区",
		"Function": "刷卡消费(提供充值服务)",
		"Type": "畅通钱包",
		"Withdraw": "购书享受6折起优惠",
		"ShopName": "三峡报刊亭",
		"Latitude": 29.592991000000001,
		"Longitude": 106.509001
	},
	{
		"Id": "G000325",
		"ShopGroup": "三峡报刊亭",
		"Address": "渝通宾馆旁(报刊亭号7-022)",
		"District": "江北区",
		"Function": "刷卡消费(提供充值服务)",
		"Type": "畅通钱包",
		"Withdraw": "购书享受6折起优惠",
		"ShopName": "三峡报刊亭",
		"Latitude": 29.563089000000002,
		"Longitude": 106.58116099999999
	},
	{
		"Id": "G000326",
		"ShopGroup": "三峡报刊亭",
		"Address": "松石二巷(报刊亭号7-001)",
		"District": "江北区",
		"Function": "刷卡消费(提供充值服务)",
		"Type": "畅通钱包",
		"Withdraw": "购书享受6折起优惠",
		"ShopName": "三峡报刊亭",
		"Latitude": 29.587140999999999,
		"Longitude": 106.50796699999999
	},
	{
		"Id": "G000327",
		"ShopGroup": "三峡报刊亭",
		"Address": "皇冠东和小区入口(报刊亭号7-029)",
		"District": "江北区",
		"Function": "刷卡消费(提供充值服务)",
		"Type": "畅通钱包",
		"Withdraw": "购书享受6折起优惠",
		"ShopName": "三峡报刊亭",
		"Latitude": 23.138183000000001,
		"Longitude": 113.20621300000001
	},
	{
		"Id": "G000328",
		"ShopGroup": "三峡报刊亭",
		"Address": "花卉园对面(报刊亭号7-018)",
		"District": "江北区",
		"Function": "刷卡消费(提供充值服务)",
		"Type": "畅通钱包",
		"Withdraw": "购书享受6折起优惠",
		"ShopName": "三峡报刊亭",
		"Latitude": 22.010961999999999,
		"Longitude": 100.796965
	},
	{
		"Id": "G000329",
		"ShopGroup": "三峡报刊亭",
		"Address": "江北区兴隆路4号对面(报刊亭号3-001)",
		"District": "江北区",
		"Function": "刷卡消费(提供充值服务)",
		"Type": "畅通钱包",
		"Withdraw": "购书享受6折起优惠",
		"ShopName": "三峡报刊亭",
		"Latitude": 29.583203000000001,
		"Longitude": 106.546075
	},
	{
		"Id": "G000330",
		"ShopGroup": "时报爱达",
		"Address": "重庆市江北区石马河街道大川水岸小区5栋",
		"District": "江北区",
		"Function": "刷卡消费(提供充值服务)",
		"Type": "畅通钱包",
		"Withdraw": "暂无折扣",
		"ShopName": "大川水岸",
		"Latitude": 29.589569999999998,
		"Longitude": 106.490977
	},
	{
		"Id": "G000331",
		"ShopGroup": "时报爱达",
		"Address": "重庆市江北区珠江太阳城A区A8一楼",
		"District": "江北区",
		"Function": "刷卡消费(提供充值服务)",
		"Type": "畅通钱包",
		"Withdraw": "暂无折扣",
		"ShopName": "珠江.太阳城",
		"Latitude": 29.577549999999999,
		"Longitude": 106.56868
	},
	{
		"Id": "G000332",
		"ShopGroup": "时报爱达",
		"Address": "重庆市江北区石马河街道曦城小区9栋负1-1",
		"District": "江北区",
		"Function": "刷卡消费(提供充值服务)",
		"Type": "畅通钱包",
		"Withdraw": "暂无折扣",
		"ShopName": "宏帆曦城",
		"Latitude": 29.589569999999998,
		"Longitude": 106.490977
	},
	{
		"Id": "G000333",
		"ShopGroup": "时报爱达",
		"Address": "重庆市江北区壹江城项目A4负一层商业119商铺",
		"District": "江北区",
		"Function": "刷卡消费(提供充值服务)",
		"Type": "畅通钱包",
		"Withdraw": "暂无折扣",
		"ShopName": "大川壹江城",
		"Latitude": 29.592109000000001,
		"Longitude": 106.473843
	},
	{
		"Id": "G000334",
		"ShopGroup": "时报爱达",
		"Address": "重庆市江北区北滨路珠江太阳城D区1栋架空层",
		"District": "江北区",
		"Function": "刷卡消费(提供充值服务)",
		"Type": "畅通钱包",
		"Withdraw": "暂无折扣",
		"ShopName": "珠江太阳城D区店",
		"Latitude": 29.579937000000001,
		"Longitude": 106.569464
	},
	{
		"Id": "G000335",
		"ShopGroup": "时报爱达",
		"Address": "江北区北滨路董家溪红砂碛16号",
		"District": "江北区",
		"Function": "刷卡消费(提供充值服务)",
		"Type": "畅通钱包",
		"Withdraw": "暂无折扣",
		"ShopName": "金砂水岸",
		"Latitude": 29.56193,
		"Longitude": 106.53527099999999
	},
	{
		"Id": "G000336",
		"ShopGroup": "时报爱达",
		"Address": "重庆市江北区洋河中路82号邦兴渝珠花苑14栋1-3号",
		"District": "江北区",
		"Function": "刷卡消费(提供充值服务)",
		"Type": "畅通钱包",
		"Withdraw": "暂无折扣",
		"ShopName": "邦兴渝珠花园",
		"Latitude": 29.589993,
		"Longitude": 106.54787899999999
	},
	{
		"Id": "G000337",
		"ShopGroup": "时报爱达",
		"Address": "重庆市江北区东方明珠A3栋一层1-3号",
		"District": "江北区",
		"Function": "刷卡消费(提供充值服务)",
		"Type": "畅通钱包",
		"Withdraw": "暂无折扣",
		"ShopName": "东方明珠",
		"Latitude": 29.571942,
		"Longitude": 106.490188
	},
	{
		"Id": "G000338",
		"ShopGroup": "时报爱达",
		"Address": "洋河北路19号7栋负一楼",
		"District": "江北区",
		"Function": "刷卡消费(提供充值服务)",
		"Type": "畅通钱包",
		"Withdraw": "暂无折扣",
		"ShopName": "御景天成",
		"Latitude": 29.592005,
		"Longitude": 106.544876
	},
	{
		"Id": "G000339",
		"ShopGroup": "时报爱达",
		"Address": "重庆市江北区北滨路珠江太阳城D区1栋架空层",
		"District": "江北区",
		"Function": "刷卡消费(提供充值服务)",
		"Type": "畅通钱包",
		"Withdraw": "暂无折扣",
		"ShopName": "珠江太阳城D区店",
		"Latitude": 29.579937000000001,
		"Longitude": 106.569464
	},
	{
		"Id": "G000340",
		"ShopGroup": "时报爱达",
		"Address": "重庆市江北区华新村360号附37号(东方家园仁苑B座)临街101#",
		"District": "江北区",
		"Function": "刷卡消费(提供充值服务)",
		"Type": "畅通钱包",
		"Withdraw": "暂无折扣",
		"ShopName": "东方家园",
		"Latitude": 29.570952999999999,
		"Longitude": 106.537638
	},
	{
		"Id": "G000341",
		"ShopGroup": "时报爱达",
		"Address": "重庆市江北区建北3支路67号耐德小区内一号门面",
		"District": "江北区",
		"Function": "刷卡消费(提供充值服务)",
		"Type": "畅通钱包",
		"Withdraw": "暂无折扣",
		"ShopName": "耐德小区",
		"Latitude": 29.587012000000001,
		"Longitude": 106.53944
	},
	{
		"Id": "G000342",
		"ShopGroup": "时报爱达",
		"Address": "重庆市江北区洋河中路82号邦兴渝珠花苑14栋1-3号",
		"District": "江北区",
		"Function": "刷卡消费(提供充值服务)",
		"Type": "畅通钱包",
		"Withdraw": "暂无折扣",
		"ShopName": "邦兴渝珠花园",
		"Latitude": 29.589993,
		"Longitude": 106.54787899999999
	},
	{
		"Id": "G000343",
		"ShopGroup": "时报爱达",
		"Address": "重庆市江北区石马河街道海悦蓝庭小区5栋负一楼",
		"District": "江北区",
		"Function": "刷卡消费(提供充值服务)",
		"Type": "畅通钱包",
		"Withdraw": "暂无折扣",
		"ShopName": "海悦蓝庭",
		"Latitude": 29.600027000000001,
		"Longitude": 106.469925
	},
	{
		"Id": "G000344",
		"ShopGroup": "时报爱达",
		"Address": "洋河北路19号7栋负一楼",
		"District": "江北区",
		"Function": "刷卡消费(提供充值服务)",
		"Type": "畅通钱包",
		"Withdraw": "暂无折扣",
		"ShopName": "御景天成",
		"Latitude": 29.592005,
		"Longitude": 106.544876
	},
	{
		"Id": "G000345",
		"ShopGroup": "时报爱达",
		"Address": "重庆市江北区北滨路珠江太阳城D区1栋架空层",
		"District": "江北区",
		"Function": "刷卡消费(提供充值服务)",
		"Type": "畅通钱包",
		"Withdraw": "暂无折扣",
		"ShopName": "珠江太阳城D区店",
		"Latitude": 29.579937000000001,
		"Longitude": 106.569464
	},
	{
		"Id": "G000346",
		"ShopGroup": "时报爱达",
		"Address": "北滨一路546号附109",
		"District": "江北区",
		"Function": "刷卡消费(提供充值服务)",
		"Type": "畅通钱包",
		"Withdraw": "暂无折扣",
		"ShopName": "东海岸",
		"Latitude": 29.571397000000001,
		"Longitude": 106.490951
	},
	{
		"Id": "G000347",
		"ShopGroup": "苏宁电器",
		"Address": "重庆江北区建新东路5号",
		"District": "江北区",
		"Function": "刷卡消费",
		"Type": "畅享账户",
		"Withdraw": "暂无折扣",
		"ShopName": "观音桥店",
		"Latitude": 29.579325000000001,
		"Longitude": 106.541524
	},
	{
		"Id": "G000348",
		"ShopGroup": "苏宁电器",
		"Address": "重庆市江北区北滨一路368号二层",
		"District": "江北区",
		"Function": "刷卡消费",
		"Type": "畅享账户",
		"Withdraw": "暂无折扣",
		"ShopName": "金源路店",
		"Latitude": 29.560635000000001,
		"Longitude": 106.531491
	},
	{
		"Id": "G000349",
		"ShopGroup": "苏宁电器",
		"Address": "重庆市江北区观音桥步行街9号嘉年华大厦",
		"District": "江北区",
		"Function": "刷卡消费",
		"Type": "畅享账户",
		"Withdraw": "暂无折扣",
		"ShopName": "观音桥步行街店",
		"Latitude": 29.579376,
		"Longitude": 106.53792
	},
	{
		"Id": "G000350",
		"ShopGroup": "苏宁电器",
		"Address": "重庆市江北区建新东路292号世纪阳光第一层/第二层",
		"District": "江北区",
		"Function": "刷卡消费",
		"Type": "畅享账户",
		"Withdraw": "暂无折扣",
		"ShopName": "五里店店",
		"Latitude": 29.585718,
		"Longitude": 106.564612
	},
	{
		"Id": "G000351",
		"ShopGroup": "苏宁电器",
		"Address": "重庆江北区红石路2号",
		"District": "江北区",
		"Function": "刷卡消费",
		"Type": "畅享账户",
		"Withdraw": "暂无折扣",
		"ShopName": "红旗河沟店",
		"Latitude": 29.589645999999998,
		"Longitude": 106.53232300000001
	},
	{
		"Id": "G000352",
		"ShopGroup": "天友乳业集团",
		"Address": "康庄美地轻轨站",
		"District": "江北区",
		"Function": "刷卡消费",
		"Type": "畅通钱包",
		"Withdraw": "暂无折扣",
		"ShopName": "康庄美地轻轨站健康生活馆",
		"Latitude": 39.537802999999997,
		"Longitude": 116.724349
	},
	{
		"Id": "G000353",
		"ShopGroup": "天友乳业集团",
		"Address": "江北区嘉陵三村261号",
		"District": "江北区",
		"Function": "刷卡消费",
		"Type": "畅通钱包",
		"Withdraw": "暂无折扣",
		"ShopName": "嘉陵三村加盟",
		"Latitude": 29.576433000000002,
		"Longitude": 106.538918
	},
	{
		"Id": "G000354",
		"ShopGroup": "天友乳业集团",
		"Address": "江北区建国村9号(五里店东海福苑茶园农贸市场)",
		"District": "江北区",
		"Function": "刷卡消费",
		"Type": "畅通钱包",
		"Withdraw": "暂无折扣",
		"ShopName": "五里店茶园加盟",
		"Latitude": 29.583152999999999,
		"Longitude": 106.559044
	},
	{
		"Id": "G000355",
		"ShopGroup": "天友乳业集团",
		"Address": "江北区大石坝东方港湾A9栋6-3",
		"District": "江北区",
		"Function": "刷卡消费",
		"Type": "畅通钱包",
		"Withdraw": "暂无折扣",
		"ShopName": "东方港湾服务中心",
		"Latitude": 29.571974000000001,
		"Longitude": 106.488046
	},
	{
		"Id": "G000356",
		"ShopGroup": "天友乳业集团",
		"Address": "渝北区双湖路街道飞湖路30号1栋2-2",
		"District": "江北区",
		"Function": "刷卡消费",
		"Type": "畅通钱包",
		"Withdraw": "暂无折扣",
		"ShopName": "飞湖路服务中心",
		"Latitude": 29.708646999999999,
		"Longitude": 106.62943199999999
	},
	{
		"Id": "G000357",
		"ShopGroup": "天友乳业集团",
		"Address": "江北区南桥寺五洲新村车站",
		"District": "江北区",
		"Function": "刷卡消费",
		"Type": "畅通钱包",
		"Withdraw": "暂无折扣",
		"ShopName": "南桥静月服务中心",
		"Latitude": 29.596119999999999,
		"Longitude": 106.494191
	},
	{
		"Id": "G000358",
		"ShopGroup": "天友乳业集团",
		"Address": "北城路53号",
		"District": "江北区",
		"Function": "刷卡消费",
		"Type": "畅通钱包",
		"Withdraw": "暂无折扣",
		"ShopName": "珠江太阳城中心",
		"Latitude": 45.986694,
		"Longitude": 128.748456
	},
	{
		"Id": "G000359",
		"ShopGroup": "天友乳业集团",
		"Address": "洋河二村54栋14号",
		"District": "江北区",
		"Function": "刷卡消费",
		"Type": "畅通钱包",
		"Withdraw": "暂无折扣",
		"ShopName": "宋金红服务中心",
		"Latitude": 29.587769000000002,
		"Longitude": 106.53825999999999
	},
	{
		"Id": "G000360",
		"ShopGroup": "天友乳业集团",
		"Address": "松石大道430号",
		"District": "江北区",
		"Function": "刷卡消费",
		"Type": "畅通钱包",
		"Withdraw": "暂无折扣",
		"ShopName": "韩志贤服务中心",
		"Latitude": 29.586739000000001,
		"Longitude": 106.48615599999999
	},
	{
		"Id": "G000361",
		"ShopGroup": "天友乳业集团",
		"Address": "大竹林金竹苑",
		"District": "江北区",
		"Function": "刷卡消费",
		"Type": "畅通钱包",
		"Withdraw": "暂无折扣",
		"ShopName": "卢川服务中心",
		"Latitude": 29.636257000000001,
		"Longitude": 106.488961
	},
	{
		"Id": "G000362",
		"ShopGroup": "天友乳业集团",
		"Address": "江北茶园加盟店",
		"District": "江北区",
		"Function": "刷卡消费",
		"Type": "畅通钱包",
		"Withdraw": "暂无折扣",
		"ShopName": "天友健康生活馆",
		"Latitude": 29.583152999999999,
		"Longitude": 106.559044
	},
	{
		"Id": "G000363",
		"ShopGroup": "天友乳业集团",
		"Address": "五里店农贸市场",
		"District": "江北区",
		"Function": "刷卡消费",
		"Type": "畅通钱包",
		"Withdraw": "暂无折扣",
		"ShopName": "天友健康生活馆",
		"Latitude": 39.865571000000003,
		"Longitude": 116.262444
	},
	{
		"Id": "G000364",
		"ShopGroup": "天友乳业集团",
		"Address": "新民街健康生活馆",
		"District": "江北区",
		"Function": "刷卡消费",
		"Type": "畅通钱包",
		"Withdraw": "暂无折扣",
		"ShopName": "天友健康生活馆",
		"Latitude": 32.496065999999999,
		"Longitude": 119.93213299999999
	},
	{
		"Id": "G000365",
		"ShopGroup": "天友乳业集团",
		"Address": "观音桥步行街健康生活馆",
		"District": "江北区",
		"Function": "刷卡消费",
		"Type": "畅通钱包",
		"Withdraw": "暂无折扣",
		"ShopName": "天友健康生活馆",
		"Latitude": 29.57978,
		"Longitude": 106.537571
	},
	{
		"Id": "G000366",
		"ShopGroup": "天友乳业集团",
		"Address": "花卉园轻轨站",
		"District": "江北区",
		"Function": "刷卡消费",
		"Type": "畅通钱包",
		"Withdraw": "暂无折扣",
		"ShopName": "花卉园轻轨站健康生活馆",
		"Latitude": 22.010961999999999,
		"Longitude": 100.796965
	},
	{
		"Id": "G000367",
		"ShopGroup": "天友乳业集团",
		"Address": "江北区大石坝红盛路73号",
		"District": "江北区",
		"Function": "刷卡消费",
		"Type": "畅通钱包",
		"Withdraw": "暂无折扣",
		"ShopName": "江北区东源中心",
		"Latitude": 29.574849,
		"Longitude": 106.502977
	},
	{
		"Id": "G000368",
		"ShopGroup": "天友乳业集团",
		"Address": "重庆市江北区大石坝8村143号",
		"District": "江北区",
		"Function": "刷卡消费",
		"Type": "畅通钱包",
		"Withdraw": "暂无折扣",
		"ShopName": "九村服务中心",
		"Latitude": 29.575980000000001,
		"Longitude": 106.494
	},
	{
		"Id": "G000369",
		"ShopGroup": "天友乳业集团",
		"Address": "江北区春晖园61号附13号",
		"District": "江北区",
		"Function": "刷卡消费",
		"Type": "畅通钱包",
		"Withdraw": "暂无折扣",
		"ShopName": "小苑服务中心",
		"Latitude": 29.580891999999999,
		"Longitude": 106.5311
	},
	{
		"Id": "G000370",
		"ShopGroup": "天友乳业集团",
		"Address": "南桥寺天竺路91号",
		"District": "江北区",
		"Function": "刷卡消费",
		"Type": "畅通钱包",
		"Withdraw": "暂无折扣",
		"ShopName": "天竺路服务中心",
		"Latitude": 29.592091,
		"Longitude": 106.49442500000001
	},
	{
		"Id": "G000371",
		"ShopGroup": "天友乳业集团",
		"Address": "江北区五里店垭口长安超市旁边",
		"District": "江北区",
		"Function": "刷卡消费",
		"Type": "畅通钱包",
		"Withdraw": "暂无折扣",
		"ShopName": "江北茶园服务中心",
		"Latitude": 29.586062999999999,
		"Longitude": 106.563819
	},
	{
		"Id": "G000372",
		"ShopGroup": "天友乳业集团",
		"Address": "五里店御庭苑2号楼佳音医院前100米",
		"District": "江北区",
		"Function": "刷卡消费",
		"Type": "畅通钱包",
		"Withdraw": "暂无折扣",
		"ShopName": "邬昌波服务中心",
		"Latitude": 29.585486,
		"Longitude": 106.56804099999999
	},
	{
		"Id": "G000373",
		"ShopGroup": "天友乳业集团",
		"Address": "大石坝重客隆背后",
		"District": "江北区",
		"Function": "刷卡消费",
		"Type": "畅通钱包",
		"Withdraw": "暂无折扣",
		"ShopName": "田时书服务中心",
		"Latitude": 29.580383999999999,
		"Longitude": 106.605676
	},
	{
		"Id": "G000374",
		"ShopGroup": "天友乳业集团",
		"Address": "洋河一路71号",
		"District": "江北区",
		"Function": "刷卡消费",
		"Type": "畅通钱包",
		"Withdraw": "暂无折扣",
		"ShopName": "向琴服务中心店",
		"Latitude": 29.588995000000001,
		"Longitude": 106.535681
	},
	{
		"Id": "G000375",
		"ShopGroup": "天友乳业集团",
		"Address": "冉家坝龙湖紫都城南大门对面",
		"District": "江北区",
		"Function": "刷卡消费",
		"Type": "畅通钱包",
		"Withdraw": "暂无折扣",
		"ShopName": "沈利华服务中心",
		"Latitude": 29.594583,
		"Longitude": 106.501026
	},
	{
		"Id": "G000376",
		"ShopGroup": "天友乳业集团",
		"Address": "红土地",
		"District": "江北区",
		"Function": "刷卡消费",
		"Type": "畅通钱包",
		"Withdraw": "暂无折扣",
		"ShopName": "天友健康生活馆",
		"Latitude": 29.468675999999999,
		"Longitude": 106.54975399999999
	},
	{
		"Id": "G000377",
		"ShopGroup": "天友乳业集团",
		"Address": "红土地轻轨站",
		"District": "江北区",
		"Function": "刷卡消费",
		"Type": "畅通钱包",
		"Withdraw": "暂无折扣",
		"ShopName": "红土地轻轨站健康生活馆",
		"Latitude": 29.468675999999999,
		"Longitude": 106.54975399999999
	},
	{
		"Id": "G000378",
		"ShopGroup": "天友乳业集团",
		"Address": "金沙水岸红砂碛26号附97号",
		"District": "江北区",
		"Function": "刷卡消费",
		"Type": "畅通钱包",
		"Withdraw": "暂无折扣",
		"ShopName": "江北区杨光兰加盟中心",
		"Latitude": 29.562449000000001,
		"Longitude": 106.53613
	},
	{
		"Id": "G000379",
		"ShopGroup": "天友乳业集团",
		"Address": "武陵路168号附3号",
		"District": "江北区",
		"Function": "刷卡消费",
		"Type": "畅通钱包",
		"Withdraw": "暂无折扣",
		"ShopName": "武陵路168中心",
		"Latitude": 28.316237999999998,
		"Longitude": 109.74671600000001
	},
	{
		"Id": "G000380",
		"ShopGroup": "天友乳业集团",
		"Address": "江北区海尔路181号兰溪小区6-3门市",
		"District": "江北区",
		"Function": "刷卡消费",
		"Type": "畅通钱包",
		"Withdraw": "暂无折扣",
		"ShopName": "兰溪小区服务中心",
		"Latitude": 29.616945000000001,
		"Longitude": 106.57882600000001
	},
	{
		"Id": "G000381",
		"ShopGroup": "天友乳业集团",
		"Address": "南桥寺石马河一江城售楼部对面",
		"District": "江北区",
		"Function": "刷卡消费",
		"Type": "畅通钱包",
		"Withdraw": "暂无折扣",
		"ShopName": "一江城服务中心",
		"Latitude": 29.590316000000001,
		"Longitude": 106.48212100000001
	},
	{
		"Id": "G000382",
		"ShopGroup": "天友乳业集团",
		"Address": "江北区桥鸿一村4号(苗儿石小学旁)",
		"District": "江北区",
		"Function": "刷卡消费",
		"Type": "畅通钱包",
		"Withdraw": "暂无折扣",
		"ShopName": "苗儿石服务中心",
		"Latitude": 29.571708999999998,
		"Longitude": 106.52247300000001
	},
	{
		"Id": "G000383",
		"ShopGroup": "天友乳业集团",
		"Address": "龙溪镇金龙路17号",
		"District": "江北区",
		"Function": "刷卡消费",
		"Type": "畅通钱包",
		"Withdraw": "暂无折扣",
		"ShopName": "陈自娟服务中心",
		"Latitude": 29.590064999999999,
		"Longitude": 106.51800900000001
	},
	{
		"Id": "G000384",
		"ShopGroup": "天友乳业集团",
		"Address": "航天职大对面石油小区内",
		"District": "江北区",
		"Function": "刷卡消费",
		"Type": "畅通钱包",
		"Withdraw": "暂无折扣",
		"ShopName": "石油小区服务中心",
		"Latitude": 29.583048999999999,
		"Longitude": 106.51114
	},
	{
		"Id": "G000385",
		"ShopGroup": "天友乳业集团",
		"Address": "渝北区龙溪镇红金路48-1号",
		"District": "江北区",
		"Function": "刷卡消费",
		"Type": "畅通钱包",
		"Withdraw": "暂无折扣",
		"ShopName": "王海燕服务中心",
		"Latitude": 29.594187000000002,
		"Longitude": 106.536472
	},
	{
		"Id": "G000386",
		"ShopGroup": "天友乳业集团",
		"Address": "石马河山水丽都15--9",
		"District": "江北区",
		"Function": "刷卡消费",
		"Type": "畅通钱包",
		"Withdraw": "暂无折扣",
		"ShopName": "石马河服务中心",
		"Latitude": 26.998159999999999,
		"Longitude": 115.754237
	},
	{
		"Id": "G000387",
		"ShopGroup": "天友乳业集团",
		"Address": "长安华都正大门内",
		"District": "江北区",
		"Function": "刷卡消费",
		"Type": "畅通钱包",
		"Withdraw": "暂无折扣",
		"ShopName": "华都食品服务中心",
		"Latitude": 29.592365000000001,
		"Longitude": 106.555132
	},
	{
		"Id": "G000388",
		"ShopGroup": "天友乳业集团",
		"Address": "五里店农贸市场加盟",
		"District": "江北区",
		"Function": "刷卡消费",
		"Type": "畅通钱包",
		"Withdraw": "暂无折扣",
		"ShopName": "天友健康生活馆",
		"Latitude": 39.865571000000003,
		"Longitude": 116.262444
	},
	{
		"Id": "G000389",
		"ShopGroup": "天友乳业集团",
		"Address": "富力海洋",
		"District": "江北区",
		"Function": "刷卡消费",
		"Type": "畅通钱包",
		"Withdraw": "暂无折扣",
		"ShopName": "天友健康生活馆",
		"Latitude": 29.586099000000001,
		"Longitude": 106.542261
	},
	{
		"Id": "G000390",
		"ShopGroup": "天友乳业集团",
		"Address": "金科十年城健康生活馆",
		"District": "江北区",
		"Function": "刷卡消费",
		"Type": "畅通钱包",
		"Withdraw": "暂无折扣",
		"ShopName": "天友健康生活馆",
		"Latitude": 29.61656,
		"Longitude": 106.490054
	},
	{
		"Id": "G000391",
		"ShopGroup": "天友乳业集团",
		"Address": "武陵一健康生活馆",
		"District": "江北区",
		"Function": "刷卡消费",
		"Type": "畅通钱包",
		"Withdraw": "暂无折扣",
		"ShopName": "天友健康生活馆",
		"Latitude": 28.996870999999999,
		"Longitude": 111.69745
	},
	{
		"Id": "G000392",
		"ShopGroup": "天友乳业集团",
		"Address": "家乐福健康生活馆",
		"District": "江北区",
		"Function": "刷卡消费",
		"Type": "畅通钱包",
		"Withdraw": "暂无折扣",
		"ShopName": "天友健康生活馆",
		"Latitude": 35.940175000000004,
		"Longitude": 116.46283
	},
	{
		"Id": "G000393",
		"ShopGroup": "天友乳业集团",
		"Address": "黄泥磅轻轨站",
		"District": "江北区",
		"Function": "刷卡消费",
		"Type": "畅通钱包",
		"Withdraw": "暂无折扣",
		"ShopName": "黄泥磅轻轨站健康生活馆",
		"Latitude": 29.592359999999999,
		"Longitude": 106.548098
	},